Tweet Id,Date,Hour,User Name,Nickname,Bio,Tweet content,Favs,RTs,Latitude,Longitude,Country,Place (as appears on Bio),Profile picture,Followers,Following,Listed,Tweet language (ISO 639-1),Tweet Url
7.21E+17,4/16/2016,12:44,Bill Schulhoff,BillSchulhoff,"Husband,Dad,GrandDad,Ordained Minister, Umpire, Poker Player, Mets, Jets, Rangers, LI Ducks, Sons of Anarchy, Survivor, Apprentice, O&A, & a good cigar","Wind 3.2 mph NNE. Barometer 30.20 in, Rising slowly. Temperature 49.3 °F. Rain today 0.00 in. Humidity 32%",,,40.76027778,-72.95472222,US,"East Patchogue, NY",http://pbs.twimg.com/profile_images/378800000718469152/535032cf772ca04524e0fe075d3b4767_normal.jpeg,386,705,24,en,http://www.twitter.com/BillSchulhoff/status/721318437075685382
7.21E+17,4/16/2016,12:44,Daniele Polis,danipolis,"Viagens, geek, moda, batons laranja, cabelos coloridos, compras, sapatos, fotos e livros.
E também @blogtrippolis.","Pausa pro café antes de embarcar no próximo vôo. #trippolisontheroad #danipolisviaja 

Pause for… https://t.co/PhcJ4oYktP",,,32.89834949,-97.03919589,US,"Grapevine, TX",http://pbs.twimg.com/profile_images/704176034015485952/gZZV4tKJ_normal.jpg,812,647,16,pt,http://www.twitter.com/danipolis/status/721318436173979648
7.21E+17,4/16/2016,12:44,Kasey Jacobs,KJacobs27,Norwich University Class of 2017,Good. Morning. #morning #Saturday #diner #VT #breakfast #nucorpsofcadetsring #ring #college… https://t.co/dBZ7dbwX6f,,,44.199476,-72.504173,US,"Barre, VT",http://pbs.twimg.com/profile_images/716958564942741504/hU_z-GGb_normal.jpg,179,206,2,en,http://www.twitter.com/KJacobs27/status/721318434169102336
7.21E+17,4/16/2016,12:44,Stan Curtis,stncurtis,"transcendental music, art for art's sake, craftbrew aficionado, sports fanatic, go for the organic, think for yourself-question authority",@gratefuldead recordstoredayus ?????? @ TOMS MUSIC TRADE https://t.co/CURRmn6iJo,,,39.901474,-76.606817,US,"Red Lion, PA",http://pbs.twimg.com/profile_images/696252824624041984/Ap5l5FU5_normal.jpg,1229,2071,11,en,http://www.twitter.com/stncurtis/status/721318429844582400
7.21E+17,4/16/2016,12:44,Dave Borzymowski,wi_borzo,When in doubt....Panic.,"Egg in a muffin!!! (@ Rocket Baby Bakery - @rocketbabybaker in Wauwatosa, WI) https://t.co/mwfhrcxtRp",,,43.06084924,-87.99830888,US,"Wauwatosa, WI",http://pbs.twimg.com/profile_images/659527912920621056/aA63owGw_normal.jpg,129,833,9,en,http://www.twitter.com/wi_borzo/status/721318429081407488
7.21E+17,4/16/2016,12:44,kirstin,KirstinMerrell,mars model,@lyricwaters should've gave the neighbor  a buzz. Iv got ice cream and moms baked goodies ??,,,36.0419128,-75.68186176,US,"Kill Devil Hills, NC",http://pbs.twimg.com/profile_images/715020648494604288/wqCZ3GHo_normal.jpg,497,659,1,en,http://www.twitter.com/KirstinMerrell/status/721318428590649344
7.21E+17,4/16/2016,12:44,Joshua Kosches,Jkosches86,"I am a John Jay MPA Alum. I live in Miami,FL.","On the way to CT! (@ Mamaroneck, NY in Mamaroneck, NY) https://t.co/6rpe6MXDkB",,,40.95034402,-73.74092102,US,"Mamaroneck, NY",http://pbs.twimg.com/profile_images/595302568428986368/LnATKLm9_normal.jpg,37,223,3,en,http://www.twitter.com/Jkosches86/status/721318427605012481
7.21E+17,4/16/2016,12:44,TMJ-PA Retail Jobs,tmj_pa_retail,Follow this account for geo-targeted Retail job tweets in Pennsylvania Non-Metro. Need help? Tweet us at @CareerArc!,We're #hiring! Read about our latest #job opening here: Retail Sales Consultant [CWA MOB] Bryn Mawr PA - https://t.co/bBwxSPsL4f #Retail,,,40.0230237,-75.3151772,US,"Bryn Mawr, PA",http://pbs.twimg.com/profile_images/666920930464002048/1e-egmEB_normal.jpg,480,312,122,en,http://www.twitter.com/tmj_pa_retail/status/721318426858250240
7.21E+17,4/16/2016,12:44,Vidal Alexander,Vonfandango,Just ask!,Me... @ Montgomery Scrap Corporation https://t.co/kpt7zM4xbL,,,39.10335,-77.13652,US,"Rockville, MD",http://pbs.twimg.com/profile_images/404979712/ac_sephiroth_1024_normal.jpg,36,116,1,en,http://www.twitter.com/Vonfandango/status/721318425193226242
7.21E+17,4/16/2016,12:44,TMJ-BAL Jobs,tmj_bal_jobs,"Follow this account for geo-targeted Other job tweets in Baltimore, MD. Need help? Tweet us at @CareerArc!","BAYADA Home Health Care: Home Health Registered Nurse (#GlenBurnie, MD) https://t.co/m53vlvEyO0 #Job #Jobs #Hiring",,,39.1626084,-76.6246886,US,"Glen Burnie, MD",http://pbs.twimg.com/profile_images/689472804815671296/219lGcLS_normal.jpg,635,540,25,en,http://www.twitter.com/tmj_bal_jobs/status/721318424991805440
7.21E+17,4/16/2016,12:44,TMJ-MD Retail Jobs,tmj_md_retail,Follow this account for geo-targeted Retail job tweets in Maryland Non-Metro. Need help? Tweet us at @CareerArc!,"Shift Supervisor Trainee - CVS Health: (#OCEANCITY, MD) https://t.co/BqCqtHS9bO #Retail #Job #Jobs #Hiring #CareerArc",,,38.3365032,-75.0849058,US,"Ocean City, MD",http://pbs.twimg.com/profile_images/668252878272749568/Pl33rKsq_normal.jpg,382,306,71,en,http://www.twitter.com/tmj_md_retail/status/721318424136187904
7.21E+17,4/16/2016,12:44,gkalkat,gkalkat,,#007 #jamesbond #blacktie #redcarpet #vip #gambling #youonlylivetwice #diamondsareforever… https://t.co/ZXRyEC9Dlg,,,37.55626996,-122.3013277,US,"San Mateo, CA",http://pbs.twimg.com/profile_images/1679986823/image_normal.jpg,164,600,17,es,http://www.twitter.com/gkalkat/status/721318424023068673
7.21E+17,4/16/2016,12:44,Dr K Goodson,GodsNaturalDiva,"I am an environmental engineering PhD who has recently found her career and is in hot pursuit for my passion.
http://t.co/aR3MPUHgCF","Although I am not endorsing a candidate, I thought this was… https://t.co/72ctPqptOA",,,39.0992,-76.5361,US,"Pasadena, MD",http://pbs.twimg.com/profile_images/592124966927208448/q_mcRnsd_normal.jpg,1317,1689,43,en,http://www.twitter.com/GodsNaturalDiva/status/721318423733604353
7.21E+17,4/16/2016,12:44,Sarah Kehoe,sarahkehoe,"#agencylife @boelterlincoln | Coffee Snob | MKE Lover but my ?? is in CO | Wannabe Blogger: https://t.co/8vQULBOb0I Opinions are my own, obviously.","I think spring finally has arrived! (@ Milwaukee Lakefront in Milwaukee, WI) https://t.co/usjyJETrQV",,,43.04204537,-87.89545298,US,"Milwaukee, WI",http://pbs.twimg.com/profile_images/662490991014858752/Zsfdzu4e_normal.jpg,1285,1522,107,en,http://www.twitter.com/sarahkehoe/status/721318422437564416
7.21E+17,4/16/2016,12:44,TMJ- BOS Health Jobs,tmj_bos_health,"Follow this account for geo-targeted Healthcare job tweets in Boston, MA. Need help? Tweet us at @CareerArc!","Want to work in #Burlington, MA? View our latest opening: https://t.co/qwwWQt0DMj #Healthcare #Job #Jobs #Hiring #CareerArc",,,42.5047161,-71.1956205,US,"Burlington, MA",http://pbs.twimg.com/profile_images/667055064503050240/6cTrjjDc_normal.jpg,670,1212,102,en,http://www.twitter.com/tmj_bos_health/status/721318421825060866
7.21E+17,4/16/2016,12:44,John Hancock,JohnHancockJobs,"Official #jobs handle of John Hancock Financial Services, world leader for #insurance & financial products. Follow @JohnHancockUSA for company news & updates","Want to work in #Charlotte, NC? View our latest opening: https://t.co/nkrJjulisQ #BusinessMgmt #insurance #Job #Jobs #Hiring",,,35.2270869,-80.8431267,US,"Charlotte, NC",http://pbs.twimg.com/profile_images/562279531847761920/NMACPtna_normal.jpeg,849,1,193,en,http://www.twitter.com/JohnHancockJobs/status/721318421707624448
7.21E+17,4/16/2016,12:44,raj,vaidyeah33,young metro trusts me | rutgers student | #devilsarmy #patsnation,you'll love this @34jaIIen https://t.co/fL7YNLOAsk,,,40.33612906,-74.59628558,US,"Plainsboro, NJ",http://pbs.twimg.com/profile_images/716075463840559105/NzT2eYdE_normal.jpg,1402,1337,35,en,http://www.twitter.com/vaidyeah33/status/721318421380603904
7.21E+17,4/16/2016,12:44,TMJ-DTW Engin. Jobs,tmj_dtw_eng,"Follow this account for geo-targeted Engineering job tweets in Detroit, MI. Need help? Tweet us at @CareerArc!","#Engineering #Job alert: Prod Engr - Software | ZF TRW | #Livonia, MI https://t.co/c86RXWivrk #Veterans #Jobs #Hiring",,,42.36837,-83.3527097,US,"Livonia, MI",http://pbs.twimg.com/profile_images/669441098180374529/42QgNN7r_normal.jpg,374,229,35,es,http://www.twitter.com/tmj_dtw_eng/status/721318420331925504
7.21E+17,4/16/2016,12:44,Atlanta IT Jobs,tmj_atl_it,"Follow this account for geo-targeted Software Dev. - General/IT job tweets in Atlanta, GA. Need help? Tweet us at @CareerArc!","Can you recommend anyone for this #job? Clinical Applications Coordinator - Ancillary - https://t.co/MKe3sLrMFt #Atlanta, GA #IT #Hiring",,,33.9091884,-84.3540514,US,"Sandy Springs, GA",http://pbs.twimg.com/profile_images/668178853605457920/BTbEst1B_normal.jpg,934,361,117,en,http://www.twitter.com/tmj_atl_it/status/721318420034093056
7.21E+17,4/16/2016,12:44,N Master,N_Master101,#chicago born and raised #Bulls #Bears #Whitesox #Blackhawks but I'm all over the nation,"I'm at @InNOutBurger in Long Beach, CA https://t.co/uqmEomzVKZ",,,33.79115045,-118.140084,US,"Long Beach, CA",http://pbs.twimg.com/profile_images/720628949710200834/oj5pPviK_normal.jpg,1257,1074,71,en,http://www.twitter.com/N_Master101/status/721318419098943488
7.21E+17,4/16/2016,12:44,Vicky Garcia Fitness,VickyGFitness,"Certified Personal Trainer, Nutrition Consultant, Zumba Instructor / Zumba for kids Instructor.",Don’t think about what can happen in a month. Don’t think about what can happen in a year. Just… https://t.co/2JFQNg7Kq6,,,33.827608,-84.496362,US,"Smyrna, GA",http://pbs.twimg.com/profile_images/1582573563/twitterfoto_normal.JPG,269,302,10,en,http://www.twitter.com/VickyGFitness/status/721318418809532416
7.21E+17,4/16/2016,12:44,Andre C. Rivera,andrerivera801,"23 Year old, Human Services Major, Boricua College Student, Bicyclist, Hobby & Emergency events Photography, Blogger, Organizer/Activist/Soundivew Community",Vacation here I come !! @ Official JetBlue Terminal - LaGuardia… https://t.co/IashwLv0ao,,,40.7747411,-73.8700121,US,"Queens, NY",http://pbs.twimg.com/profile_images/508430644914188288/1bhSiXvI_normal.jpeg,594,2099,53,en,http://www.twitter.com/andrerivera801/status/721318418780196864
7.21E+17,4/16/2016,12:44,Pola,PolaBonita,ex inmadura.,"?? @ Foro Sol, Mexico D.F. https://t.co/PbAbOVEPCl",,,19.40511435,-99.09569378,MX,"Iztacalco, Distrito Federal",http://pbs.twimg.com/profile_images/667491164388392960/FyFvhlgB_normal.jpg,836,1107,13,es,http://www.twitter.com/PolaBonita/status/721318417324646400
7.21E+17,4/16/2016,12:44,TMJ-VAF HRTA Jobs,tmj_VAF_HRTA,"Follow this account for geo-targeted Hospitality/Restaurant/Tourism job tweets in Fairfax, VA. Need help? Tweet us at @CareerArc!","Can you recommend anyone for this #Hospitality #job? https://t.co/opAs4JitFl #restaurantjobs #Fairfax, VA #Hiring #CareerArc",,,38.8735614,-77.3898602,US,"Chantilly, VA",http://pbs.twimg.com/profile_images/670215770161332225/gXFRBAy1_normal.jpg,309,273,23,en,http://www.twitter.com/tmj_VAF_HRTA/status/721318416548700160
7.21E+17,4/16/2016,12:44,TMJ-NC Retail Jobs,tmj_nc_retail,Follow this account for geo-targeted Retail job tweets in North Carolina. Need help? Tweet us at @CareerArc!,"We're #hiring! Click to apply: Manager Trainee-Retail Sales - https://t.co/pvhrRytQ9L #Retail #WinstonSalem, NC #Job #Jobs #CareerArc",,,36.0564654,-80.3324514,US,"Winston-Salem, NC",http://pbs.twimg.com/profile_images/667816428473421824/1ATjx8WA_normal.jpg,427,305,91,en,http://www.twitter.com/tmj_nc_retail/status/721318416003411968
7.21E+17,4/16/2016,12:44,Alan Anzo,AlanElGrande_1,"Life is not a problem to be solve, but a Reality to be Experienced.",I'm at Home https://t.co/fDCP5atErT,,,19.32056326,-99.15115017,MX,"Coyoacán, Distrito Federal",http://pbs.twimg.com/profile_images/662019311087697920/4YIfavKX_normal.jpg,99,136,4,en,http://www.twitter.com/AlanElGrande_1/status/721318415680540672
7.21E+17,4/16/2016,12:44,GA Manufacturing,tmj_ga_manuf,Follow this account for geo-targeted Manufacturing job tweets in Georgia Non-Metro. Need help? Tweet us at @CareerArc!,"See our latest #Savannah, GA #job and click to apply: Structural Mechanic II - https://t.co/t4cYAS9Ceb #Manufacturing #Hiring",,,32.0835407,-81.0998342,US,"Savannah, GA",http://pbs.twimg.com/profile_images/671349037719621632/4HTcSNGD_normal.jpg,304,200,54,en,http://www.twitter.com/tmj_ga_manuf/status/721318415458107392
7.21E+17,4/16/2016,12:44,New Jersey Sales,tmj_NJ_sales,Follow this account for geo-targeted Sales job tweets in New Jersey Non-Metro. Need help? Tweet us at @CareerArc!,"Want to work at Macy's Beauty? We're #hiring in #Vorhees, NJ! Click for details: https://t.co/976Ux7tqsS #Sales #Job #Jobs #CareerArc",,,39.8508744,-75.0020025,US,"Echelon, NJ",http://pbs.twimg.com/profile_images/668163983765966849/M6mvG8A6_normal.jpg,455,300,86,en,http://www.twitter.com/tmj_NJ_sales/status/721318415344881664
7.21E+17,4/16/2016,12:44,Favorite Jobs,FavoriteJobs,We're your Advocate. We're your Family. Follow us for #healthcare & #nursing #jobs at @FavoriteStaff,Can you recommend anyone for this #job? Registered Nurse | RN | MS (Contract) - https://t.co/qUivCRlU5c #RN #Nursing https://t.co/dF6zpB6uYr,,,38.9822282,-94.6707917,US,"Overland Park, KS",http://pbs.twimg.com/profile_images/663783434829955072/qirUW18u_normal.jpg,191,99,173,en,http://www.twitter.com/FavoriteJobs/status/721318415114186752
7.21E+17,4/16/2016,12:44,Chris McGinn,SlimMcGinn,• Fun seeker since 1980 •,?? is ?? @ Jupiter Donuts North Palm https://t.co/QO2cgVUIsC,,,26.80994,-80.05588,US,"North Palm Beach, FL",http://pbs.twimg.com/profile_images/417874641743794176/DegXFvw9_normal.jpeg,433,552,5,en,http://www.twitter.com/SlimMcGinn/status/721318414980145154
7.21E+17,4/16/2016,12:44,NJ Non-Metro Jobs,tmj_nj_usa_jobs,Follow this account for geo-targeted Other job tweets in New Jersey Non-Metro. Need help? Tweet us at @CareerArc!,"in #TomsRiver, NJ: Hourly Home Care Nurses Needed (Registered Nurse RN / Licensed... at BAYADA Home Health Care https://t.co/ODNWErZ0sg",,,39.9537358,-74.1979458,US,"Toms River, NJ",http://pbs.twimg.com/profile_images/691239700720275456/21t-csui_normal.jpg,810,529,38,en,http://www.twitter.com/tmj_nj_usa_jobs/status/721318413973389312
7.21E+17,4/16/2016,12:44,TMJ-ATL CstSrv Jobs,tmj_atl_cstsrv,"Follow this account for geo-targeted Customer Service job tweets in Atlanta, GA. Need help? Tweet us at @CareerArc!","Want to work at Aerotek? We're #hiring in #Duluth, GA! Click for details: https://t.co/PShztQSvgX #CustomerService #Job #Jobs",,,34.0028786,-84.1446376,US,"Duluth, GA",http://pbs.twimg.com/profile_images/670393196237623297/NiiwNmX8_normal.jpg,473,315,47,en,http://www.twitter.com/tmj_atl_cstsrv/status/721318412916371457
7.21E+17,4/16/2016,12:44,Char Sips&Scroll,sugahNspyce_,"I tweet & RT what I want...............
A little bit of everything- music/movies/tv to politics to ratchet news #foodie #spurs #steelers","It is a beautiful Saturday morning!!! Get out &amp; enjoy??????
#HappySaturday!!! @ Clearwater Beach… https://t.co/qMmkcauTjG",,,27.9172217,-82.80687332,US,"Largo, FL",http://pbs.twimg.com/profile_images/709463394852671488/HB1wxB8w_normal.jpg,1614,1654,43,en,http://www.twitter.com/sugahNspyce_/status/721318411024920576
7.21E+17,4/16/2016,12:44,Lisa Torre,LisaTorreFitnes,"Ind. Team Beachbody Coach, Yoga Instructor, Mother of the Year, Wife of the Century",Remember that time we got Lucas some #DoleWhip and he spilled the whole thing on his leg on his… https://t.co/bQ6CPqL93k,,,28.41529704,-81.58061202,US,"Florida, USA",http://pbs.twimg.com/profile_images/378800000304149045/bbf373fb0082be83caedbb61bffa68a5_normal.jpeg,59,132,20,en,http://www.twitter.com/LisaTorreFitnes/status/721318409540136960
7.21E+17,4/16/2016,12:44,Jorge Monteagudo V,jorgemv08,,"I'm at Universidad Intercontinental - @uicmx in México, DF https://t.co/NV870nyOaZ",,,19.28082318,-99.17149723,MX,"Tlalpan, Distrito Federal",http://pbs.twimg.com/profile_images/644314303307223040/0GkCoDSb_normal.jpg,80,86,2,es,http://www.twitter.com/jorgemv08/status/721318405236776960
7.21E+17,4/16/2016,12:44,Doherty Jobs,DohertyJobs,"Woman owned & family operated, Doherty The #Employment Experts has been connecting great people with great #jobs for over 35 years!","See our latest #WestStPaul, MN #job and click to apply: MACHINE OPERATOR - https://t.co/f4nllAKHtm #Manufacturing https://t.co/kk0MsO1fss",,,44.9160768,-93.1016074,US,"West St Paul, MN",http://pbs.twimg.com/profile_images/501810077557198848/lQy920qQ_normal.jpeg,431,490,99,en,http://www.twitter.com/DohertyJobs/status/721318404112588800
7.21E+17,4/16/2016,12:44,DariusThaGreat,DariusDuhGreat,"musician, singer-songwriter, music producer, most importantly a great daddy!",Just posted a photo @ Memories Bar &amp; Grill https://t.co/Vl8xlzZYN1,,,39.89628368,-86.21590046,US,"Indianapolis, IN",http://pbs.twimg.com/profile_images/551039923395264512/uaiEmweA_normal.jpeg,426,527,6,en,http://www.twitter.com/DariusDuhGreat/status/721318401717571584
7.21E+17,4/16/2016,12:44,"James K Barath, CMPS",jkbarath,"Certified Mortgage Planner; Do Home Loans - NMLS 124492; Father of a LEGO Boy. I Tweet about Mortgages, Real Estate, Social Networking, Marketing + Jai.","Let's get this Saturday started! (@ Starbucks in Crown Point, IN) https://t.co/dQZA4tB2jC",,,41.42688292,-87.36377281,US,"Crown Point, IN",http://pbs.twimg.com/profile_images/484093689300393985/FWl3FZPJ_normal.jpeg,4541,437,179,en,http://www.twitter.com/jkbarath/status/721318400706875392
7.21E+17,4/16/2016,12:44,Joe Ruffennach,firnatine633,captain in the fire department,I just began a doing circuit training workout using #Endomondo. Peptalk me now @ https://t.co/Lsdhsl50V0,,,33.486286,-79.098603,US,"Pawleys Island, SC",http://pbs.twimg.com/profile_images/3460991227/836eb813ee7883473d9f4486ce4136fa_normal.jpeg,49,34,6,en,http://www.twitter.com/firnatine633/status/721318394667081728
7.21E+17,4/16/2016,12:44,BriannaMengel,legnemannairb,Peanut Butter Vibes  //  NR,Having a slight craving for rock climbing and waterfall jumps???#stayswoopinfolks @ Linville… https://t.co/AGVQlOaFCD,,,35.9592,-81.9431,US,"North Carolina, USA",http://pbs.twimg.com/profile_images/709882995319173120/Z7Ql4NJn_normal.jpg,475,283,1,en,http://www.twitter.com/legnemannairb/status/721318393207525376
7.21E+17,4/16/2016,12:44,Chris S Jones,foggypaws,"I remember my dog Hoover everyday, I race for the Pamakids Ultra Running Team, serve in the US Army, and am a CU alum... GO BUFFS!",Ran the B.A.A. 5k this morning with Chris Sanford and finished with the exact same time as last… https://t.co/m8ClCPqjiR,,,42.35628305,-71.06330103,US,"Boston, MA",http://pbs.twimg.com/profile_images/684931992303996928/6YKAeM3C_normal.jpg,564,1023,11,en,http://www.twitter.com/foggypaws/status/721318386290991104
7.21E+17,4/16/2016,12:44,Patricia Suhre,SugaPiesMama,"Just a Girl who Loves to Laugh, Loves the Texans & Loves the Lord. I am Wife to the Most Amazing Man & SugaPies Mama! Blessed! Amos 3:3 John 3:16",I'm  proud of myself! My feet not so much.. ?? I'm going to have to… https://t.co/Qc2s2BHRny,,,29.4046645,-95.2319405,US,"Alvin, TX",http://pbs.twimg.com/profile_images/706442923131297792/6Wv63cft_normal.jpg,239,77,43,en,http://www.twitter.com/SugaPiesMama/status/721318379437600768
7.21E+17,4/16/2016,12:44,fulltimeGiGS Jobs,FTGiGSJobs,All #jobs all the time! Apply today!  Follow our official account @fulltimeGiGS for #jobsearch tips and career advice.,"Can you recommend anyone for this #IT #job? https://t.co/5LXR45vFwh #Cleveland, OH #Hiring https://t.co/JZu6ghfmVY",,,41.49932,-81.6943605,US,"Cleveland, OH",http://pbs.twimg.com/profile_images/657211104746061824/ABgu_N9n_normal.png,259,127,427,en,http://www.twitter.com/FTGiGSJobs/status/721318376446889985
7.21E+17,4/16/2016,12:44,TMJ-MD HRTA Jobs,tmj_md_hrta,Follow this account for geo-targeted Hospitality/Restaurant/Tourism job tweets in Maryland Non-Metro. Need help? Tweet us at @CareerArc!,"If you're a #Hospitality professional in 620 MARKETPLACE DRIVE, #BELAIR, MD, check out this #job: https://t.co/72KLimPrrd #Veterans #Hiring",,,39.5241026,-76.3524419,US,"Bel Air, MD",http://pbs.twimg.com/profile_images/668520057203376129/Ni21wgn1_normal.jpg,375,287,47,en,http://www.twitter.com/tmj_md_hrta/status/721318375742263296
7.21E+17,4/16/2016,12:44,TMJ-SCM Health Jobs,tmj_scm_health,"Follow this account for geo-targeted Healthcare job tweets in Myrtle Beach, SC. Need help? Tweet us at @CareerArc!","#Healthcare #Job alert: Physical Therapist (PT) /... | Accountable Healthcare Staffing | #MurrellsInlet, SC https://t.co/cnnBVRzVgv #Jobs",,,33.5510021,-79.0414261,US,"Murrells Inlet, SC",http://pbs.twimg.com/profile_images/686286789707890688/iBTPEcwl_normal.jpg,391,284,39,en,http://www.twitter.com/tmj_scm_health/status/721318375649992704
7.21E+17,4/16/2016,12:44,TMJ-NJN Pharm. Jobs,tmj_njn_pharm,Follow this account for geo-targeted Pharm./Biotech job tweets in Northern NJ. Need help? Tweet us at @CareerArc!,"Can you recommend anyone for this #job? Clinical Project Manager - https://t.co/U2jlHyTkV5 #FairLawn, NJ #Pharmaceutical #Hiring",,,40.9403762,-74.1318096,US,"Fair Lawn, NJ",http://pbs.twimg.com/profile_images/683986760506839041/rTR-cFo0_normal.jpg,394,309,13,en,http://www.twitter.com/tmj_njn_pharm/status/721318375649980417
7.21E+17,4/16/2016,12:44,TMJ-ATL Engin. Jobs,tmj_atl_eng,"Follow this account for geo-targeted Engineering job tweets in Atlanta, GA. Need help? Tweet us at @CareerArc!","AT&amp;T #Engineering #Job: Senior eCommerce Reporting Analyst (#Atlanta, GA) https://t.co/N7JYUa6Kxg #Jobs #Hiring #CareerArc",,,33.7489954,-84.3879824,US,"Atlanta, GA",http://pbs.twimg.com/profile_images/670653842669723649/v56ieXdU_normal.jpg,406,263,64,en,http://www.twitter.com/tmj_atl_eng/status/721318375138328577
7.21E+17,4/16/2016,12:44,Jason W,jasoid,,South African send off! #sarahbolen #SarahPreAfrica #BolenInTheBush #FutureQueenofNamibia… https://t.co/U2t7NNhvam,,,40.63972222,-73.77888889,US,"Queens, NY",http://pbs.twimg.com/profile_images/2633488044/acd40cf21279385cb7220134b84b274b_normal.jpeg,193,670,2,en,http://www.twitter.com/jasoid/status/721318372424683520
7.21E+17,4/16/2016,12:44,TMJ-ATL Cosmo Jobs,tmj_atl_cosmo,"Follow this account for geo-targeted Cosmetology/Hairstylist job tweets in Atlanta, GA. Need help? Tweet us at @CareerArc!","Hair Stylist - Great Clips: (#Buford, GA) https://t.co/dRvUJifQWZ #Cosmetology #Job #Jobs #Hiring #CareerArc",,,34.1187928,-84.0751471,US,"Sugar Hill, GA",http://pbs.twimg.com/profile_images/692477832656732161/MY67XAgd_normal.jpg,298,257,6,en,http://www.twitter.com/tmj_atl_cosmo/status/721318371346649088
7.21E+17,4/16/2016,12:44,TMJ-MIA Retail Jobs,tmj_mia_retail,"Follow this account for geo-targeted Retail job tweets in Miami, FL. Need help? Tweet us at @CareerArc!","Customer Service Associate I - Lowe's Stores: (#Hialeah, FL) https://t.co/WRPW3xZ3df #Retail #Job #Jobs #Hiring",,,25.8575963,-80.2781057,US,"Hialeah, FL",http://pbs.twimg.com/profile_images/667236220691283968/oGZZ0rKk_normal.jpg,469,311,86,en,http://www.twitter.com/tmj_mia_retail/status/721318369874432001
7.21E+17,4/16/2016,12:44,511 New York,511NY,Traffic & transit updates for all of New York State provided by New York State 511. Visit the website for more feeds.,Cleared: Closure on #US1 SB at South of Olden Ave,,,40.234776,-74.747567,US,"Trenton, NJ",http://pbs.twimg.com/profile_images/307131779/511twitlogo_normal.png,1285,206,192,en,http://www.twitter.com/511NY/status/721318368507203584
7.21E+17,4/16/2016,12:44,Annie Islas,AnnieMyBoo,I'm doing my thing. I'm tryna be unforgettable.,"Ya estoy lista.???????? (@ Centro @Netec in Mexico, D.F.) https://t.co/55UUszDmQX",,,19.3945264,-99.17381538,MX,"Benito Juárez, Distrito Federal",http://pbs.twimg.com/profile_images/696185710575902722/vIgZKVVB_normal.jpg,198,144,3,es,http://www.twitter.com/AnnieMyBoo/status/721318368364621826
7.21E+17,4/16/2016,12:44,Ocelotemx1,Ocelotemx1,whatsapp: 5572676413 Instagram :@ocelotemx1,+followers for @jasmincadavid ?????? @ Secretaria de Gobernación SEGOB https://t.co/Oex2BzearG,,,19.43048663,-99.15284238,MX,"Cuauhtémoc, Distrito Federal",http://pbs.twimg.com/profile_images/571888336635228162/m_qzj5Du_normal.jpeg,368,907,9,es,http://www.twitter.com/Ocelotemx1/status/721318366699360257
7.21E+17,4/16/2016,12:44,Plez,plezWorld,husband-father-son-brother-mentor-Nupe-exec-consultant-geek-activist-wonk-blogger-friend-and a helluva engineer (GT alum) twittering away in plezWorld!,"I'm at @DunkinDonuts in Lithonia, GA https://t.co/d6IU15ig5J",,,33.69758466,-84.17255616,US,"Georgia, USA",http://pbs.twimg.com/profile_images/1765814630/PAJ-2011Tux_normal.jpg,1927,1991,53,en,http://www.twitter.com/plezWorld/status/721318363738284033
7.21E+17,4/16/2016,12:44,?KingAsshole™,biggtwon,"#BestDadEver
fake ass #twitter comedian
gym rat 
Fuck Cancer
Boxer
team Leo ?
Owner @AASignatureServ
Instagram/Kik/snapchat/ask.fm @Biggtwon","7:45 appointment (@ The Art of Fadez in Villa Park, IL) https://t.co/wpZl3DCh7N https://t.co/aVCF3zHDOs",,,41.903754,-87.988247,US,"Villa Park, IL",http://pbs.twimg.com/profile_images/651546422605664256/xZQPRvAO_normal.jpg,1612,1932,43,en,http://www.twitter.com/biggtwon/status/721318361867661312
7.21E+17,4/16/2016,12:44,511 New York,511NY,Traffic & transit updates for all of New York State provided by New York State 511. Visit the website for more feeds.,Cleared: Incident on #I87NYSThruway NB at Exit 21 (I-87) - Catskill (Rte 23),,,42.250298,-73.884049,US,"Jefferson Heights, NY",http://pbs.twimg.com/profile_images/307131779/511twitlogo_normal.png,1285,206,192,en,http://www.twitter.com/511NY/status/721318352426283008
7.21E+17,4/16/2016,12:44,Bertha Balseca,BerthaBalseca,"Mother, Runner, Art/Photography/Music Lover and Looking for the Next Big Thing. I'm from Guayaquil-Ecuador living in Miami!","Mis campeones!! #doralparks , #nikerunning , #running , #5kdoral ,… https://t.co/2caB5qTpxz",,,25.82759609,-80.38457593,US,"Doral, FL",http://pbs.twimg.com/profile_images/589633010141630464/yTts9gAG_normal.jpg,80,331,2,en,http://www.twitter.com/BerthaBalseca/status/721318350203260928
7.21E+17,4/16/2016,12:44,Dayton Freight Jobs,DaytonFrtJobs,@DaytonFreight  is an LTL freight carrier providing exceptional service on-time and claims-free. Join the Dayton team by applying to our open #jobs here.,"Interested in a #Transportation #job near #CedarRapids, IA? This could be a great fit: https://t.co/ms2NPVV4ZL https://t.co/4Fnn8GVwmg",,,41.9625013,-91.6918465,US,"Cedar Rapids, IA",http://pbs.twimg.com/profile_images/507913343844118528/KI5c5e4c_normal.jpeg,79,1,80,en,http://www.twitter.com/DaytonFrtJobs/status/721318338207481856
7.21E+17,4/16/2016,12:44,Gaby Osornio ?,Gabinthehouse,"La vida te da las cartas, no puedes cambiarlas, pero tú decides cómo jugarlas. ?",De esas veces que te piden tus apuntes y uno sólo anota el título. ??,,,19.3222048,-99.17784225,MX,"Coyoacán, Distrito Federal",http://pbs.twimg.com/profile_images/489662586191745024/QB8F7mH2_normal.jpeg,167,496,2,es,http://www.twitter.com/Gabinthehouse/status/721318337267904512
7.21E+17,4/16/2016,12:44,Divine Appetit Co,divine_appetit,"Divine Appetit Co., is a catering and food services provider dedicated to serving up long lasting memories for its clients by creating “Simple. Artistic. Eats”!","Good morning, another successful segment! #charlotte #salisburync #wbtvandme #wbtvnews #cnbc… https://t.co/BrUyVWCtUG",,,35.22721,-80.87243,US,"Charlotte, NC",http://pbs.twimg.com/profile_images/451777349155958784/fsPNvvvb_normal.jpeg,62,105,3,en,http://www.twitter.com/divine_appetit/status/721318336425013248
7.21E+17,4/16/2016,12:44,TMJ-GBR Pharm. Jobs,tmj_GBR_pharm,Follow this account for geo-targeted Pharm./Biotech job tweets in Great Britain. Need help? Tweet us at @CareerArc!,"Want to work in #Inverness, SL? View our latest opening: https://t.co/ZVoMJxGRdO #Pharmaceutical #Job #Jobs #Hiring #CareerArc",,,38.1010337,-122.8569377,US,"California, USA",http://pbs.twimg.com/profile_images/668283108874043392/3W2tguq6_normal.jpg,496,331,141,en,http://www.twitter.com/tmj_GBR_pharm/status/721318335233658880
7.21E+17,4/16/2016,12:44,TMJ-NJC Acct. Jobs,tmj_njc_acct,Follow this account for geo-targeted Accounting job tweets in Central NJ. Need help? Tweet us at @CareerArc!,"See our latest #NewBrunswick, NJ #job and click to apply: Senior Accountant - https://t.co/kAjyWq0gyx #Accounting #Hiring #CareerArc",,,40.4862157,-74.4518188,US,"New Brunswick, NJ",http://pbs.twimg.com/profile_images/679305675873247232/9zJ3j0Eh_normal.jpg,418,292,33,en,http://www.twitter.com/tmj_njc_acct/status/721318334436913152
7.21E+17,4/16/2016,12:44,TMJ-NYC CstSrv Jobs,tmj_nyc_cstsrv,"Follow this account for geo-targeted Customer Service job tweets in New York, NY. Need help? Tweet us at @CareerArc!","We're #hiring! Read about our latest #job opening here: Call Center Manager - https://t.co/4HtRNlu14A #NEWYORK, NY #CustomerService",,,40.7519846,-73.9697795,US,"Manhattan, NY",http://pbs.twimg.com/profile_images/669365506642612225/8QZDLKUf_normal.jpg,455,284,64,en,http://www.twitter.com/tmj_nyc_cstsrv/status/721318334357110784
7.21E+17,4/16/2016,12:44,TMJ-SC HRTA Jobs,tmj_sc_hrta,Follow this account for geo-targeted Hospitality/Restaurant/Tourism job tweets in South Carolina Non-Metro. Need help? Tweet us at @CareerArc!,Want to work in ? View our latest opening: https://t.co/47mSniYiPU #Hospitality #Veterans #Job #Jobs #Hiring #CareerArc,,,32.873221,-80.018178,US,"North Charleston, SC",http://pbs.twimg.com/profile_images/668424284889464832/VW4K-wvH_normal.jpg,379,281,41,en,http://www.twitter.com/tmj_sc_hrta/status/721318334092840960
7.21E+17,4/16/2016,12:44,TMJ - MIA Sales Jobs,tmj_mia_sales,"Follow this account for geo-targeted Sales job tweets in Miami, FL. Need help? Tweet us at @CareerArc!","#CareerArc #Sales #Job alert: Inside Sales Representative based in Greenville,SC | UPS | #MIAMI, FL https://t.co/LHXeF3YwLL #Jobs #Hiring",,,25.7783254,-80.1990136,US,"Miami, FL",http://pbs.twimg.com/profile_images/668801536831582209/sr4FfAEe_normal.jpg,459,309,102,en,http://www.twitter.com/tmj_mia_sales/status/721318333799227392
7.21E+17,4/16/2016,12:44,TMJ- WAS Health Jobs,tmj_dc_health,Follow this account for geo-targeted Healthcare job tweets in DC Metro. Need help? Tweet us at @CareerArc!,"Want to work in #FALLSCHURCH, VA? View our latest opening: https://t.co/sgxNmVAkQl #Healthcare #Job #Jobs #Hiring #CareerArc",,,38.8581893,-77.2286077,US,"Annandale, VA",http://pbs.twimg.com/profile_images/667151005067272193/rU6sGwnu_normal.jpg,466,307,98,en,http://www.twitter.com/tmj_dc_health/status/721318333606289409
7.21E+17,4/16/2016,12:44,Lynne J. Johnson,MoJoCMO,"My Mojo Is CMO: Chief Marketing Officer, Consumer's Credit Union Chief Mom of 6 Awesome Kids #Forbes List #SimplyBeKind #AlwaysLearning. #LovePublicSpeaking",Morning from #Chicago! #letsmove @ Sheraton Grand Chicago https://t.co/eXhkfqbpbc,,,41.88914,-87.61945,US,"Chicago, IL",http://pbs.twimg.com/profile_images/719982047096348673/4taArR3w_normal.jpg,13703,14663,434,en,http://www.twitter.com/MoJoCMO/status/721318332893306884
7.21E+17,4/16/2016,12:44,Join BAYADA,JoinBAYADA,"BAYADA employs more than 18,000 nurses, home health aides, therapists, medical social workers, managers, and other health care professionals across the country.","#Fayetteville, NC #Job: LPN / Licensed Practical Nurse in Fayetteville, NC at BAYADA Home Health Care https://t.co/8iyUom4SW7 #Jobs",,,35.0526641,-78.8783585,US,"Fayetteville, NC",http://pbs.twimg.com/profile_images/521653094073896960/S288SKQw_normal.jpeg,312,29,315,en,http://www.twitter.com/JoinBAYADA/status/721318331811106816
7.21E+17,4/16/2016,12:44,Carrie Cleveland,MsCarrieC,,"Team #3, Burning Possums, I just finished my 3rd leg. #ragnar #ragnaraustin #fit2runstpete… https://t.co/QuNvE5zxQ2",,,29.9891,-97.8759,US,"Kyle, TX",http://pbs.twimg.com/profile_images/2289431554/v4v580wvvvmxj3lhbt10_normal.jpeg,39,50,1,en,http://www.twitter.com/MsCarrieC/status/721318331500871680
7.21E+17,4/16/2016,12:44,Matthew Gilmore,MattGilmore112,WCH'18 16 years old,OH - #ohiostatespringgame @ Ohio Stadium https://t.co/fSbub0Xd03,,,40.00166667,-83.01972222,US,"Columbus, OH",http://pbs.twimg.com/profile_images/692878145981026306/X1I6QeGr_normal.jpg,154,215,2,en,http://www.twitter.com/MattGilmore112/status/721318331026927616
7.21E+17,4/16/2016,12:44,?Shaquana?,IndigenousSlay,Indigenous - I speak many different languages..all in English. A student of life,@callmedollar 10 years from now they are going to feel sorry they didn't pay her any mind???? #theydontknowrealmusic,,,39.93253,-75.102412,US,"Camden, NJ",http://pbs.twimg.com/profile_images/701136127420399618/_DlbSf4c_normal.jpg,430,270,19,en,http://www.twitter.com/IndigenousSlay/status/721318329592516609
7.21E+17,4/16/2016,12:44,'Sunkanmi,7unky,Loyalty is Everything,They don't have no 'home' to retire to in the future. They're comfortable owing the government till they die. Iss that life?,,,41.9908854,-87.6566102,US,"Chicago, IL",http://pbs.twimg.com/profile_images/719920334447755264/eqPLtXn8_normal.jpg,1754,370,16,en,http://www.twitter.com/7unky/status/721318325939265536
7.21E+17,4/16/2016,12:44,ADK310,ACEDAKIDD310,,"I'm at Twerk in Horsham, PA https://t.co/VRmWIJssIC",,,40.16199466,-75.14814492,US,"Horsham, PA",http://pbs.twimg.com/profile_images/700838512069771264/NRDJlmNH_normal.jpg,576,1350,19,en,http://www.twitter.com/ACEDAKIDD310/status/721318324131532801
7.21E+17,4/16/2016,12:44,Hannah Shields,hannahshields_,Averett University Volleyball,It's our Spring Tournament day and I couldn't be more excited! Come… https://t.co/MDEoB22F1b,,,36.596769,-79.436603,US,"Danville, VA",http://pbs.twimg.com/profile_images/689574921610072064/0iiM_d4s_normal.jpg,720,553,1,en,http://www.twitter.com/hannahshields_/status/721318321619091456
7.21E+17,4/16/2016,12:44,Christine Saunders,chrisandxbones,"Hairbow maker, book listener, traveler, fangirl. Come with me if you want to live. http://t.co/ynSw2om6Db","This is my first one day show since 2014, I streamlined my set up a little, but it still took… https://t.co/Vu8IbYmiWP",,,35.77391,-78.64074003,US,"Raleigh, NC",http://pbs.twimg.com/profile_images/615955289498611713/DcymV_GX_normal.jpg,185,509,9,en,http://www.twitter.com/chrisandxbones/status/721318321572999168
7.21E+17,4/16/2016,12:44,Heather Adams,HeatherAdams44,"Journalist. Community Engagement Specialist- @masslivenews. @MUConvergence Grad. Loves all things journalism, religion and tennis. Wants a pet shark.",Officially done with all things taxes! #adult https://t.co/WyLgrQynAE,,,42.26931477,-72.67179548,US,"Easthampton, MA",http://pbs.twimg.com/profile_images/673543919523655680/Qa0922qV_normal.jpg,623,983,45,en,http://www.twitter.com/HeatherAdams44/status/721318319509389313
7.21E+17,4/16/2016,12:44,Nukdollar$,Therealnuk,IG:halfnukhalfdavid,"Lol

#paulmooney #comedy @ RedBlocc https://t.co/kMLuzYmhj7",,,40.68454762,-73.73246489,US,"Queens, NY",http://pbs.twimg.com/profile_images/696544044323905537/x4N3rufH_normal.jpg,396,1992,7,en,http://www.twitter.com/Therealnuk/status/721318319387586560
7.21E+17,4/16/2016,12:44,TheKenyaCrooks,TheKenyaCrooks,I train the Sexiest bodies on Reality Tv. I'm The World's Greatest Weight loss Expert!  Welcome to the  Assembly line to Fine.,WE'RE ABOUT TO GET IT IN @ The Congress Plaza Hotel &amp; Convention Center https://t.co/hgyo9hvLPH,,,41.87505,-87.6247999,US,"Chicago, IL",http://pbs.twimg.com/profile_images/474616933212360706/Ni6cPmom_normal.jpeg,11972,10640,178,en,http://www.twitter.com/TheKenyaCrooks/status/721318305114378240
7.21E+17,4/16/2016,12:44,Pablo,renteriaboxing,?Boxing (Sports) Fan. Music is my passion. Family is Everything!,"I'm at Pepsi Bottling Group in Hayward, CA https://t.co/tEIF4qlysC",,,37.6121905,-122.0841578,US,"Hayward, CA",http://pbs.twimg.com/profile_images/435113715612925953/KFiyJTg1_normal.jpeg,278,999,8,en,http://www.twitter.com/renteriaboxing/status/721318302837026818
7.21E+17,4/16/2016,12:44,HCA,PracticeWithUs,Beginning 11/12/14 all Physician Career related content posts can be found at @PWU_News.  Our Job openings will remain on this site.  Thank you!,Join the Good Samaritan Hospital team! See our latest #Physician #job opening here: https://t.co/lVIUdKuaQJ #Hiring https://t.co/EQSh17D9q6,,,37.2520715,-121.9463305,US,"San Jose, CA",http://pbs.twimg.com/profile_images/487644019875270657/SaqyIM5g_normal.jpeg,929,208,232,en,http://www.twitter.com/PracticeWithUs/status/721318297707261952
7.21E+17,4/16/2016,12:44,Expera Jobs,ExperaJobs,"Thinking, doing, making, solving…that’s our specialty at Expera Specialty Solutions. Want to be a part of it?  Follow us to learn more!","Want to work in #Rhinelander, WI? View our latest opening: https://t.co/oL57AKrhZn #Engineering #paper #specialty https://t.co/N3g8DX9aIh",,,45.6366228,-89.4120753,US,"Rhinelander, WI",http://pbs.twimg.com/profile_images/603619798094774272/1tF3NN7s_normal.jpg,24,53,40,en,http://www.twitter.com/ExperaJobs/status/721318293873696768
7.21E+17,4/16/2016,12:44,TMJ-NY HRTA Jobs,tmj_ny_hrta,Follow this account for geo-targeted Hospitality/Restaurant/Tourism job tweets in New York Non-Metro. Need help? Tweet us at @CareerArc!,"Cashier - Food - Delaware North: (#Clarence, NY) https://t.co/asugQrvSeM #Hospitality #Job #Jobs #Hiring #CareerArc",,,42.9767255,-78.5919709,US,"Clarence, NY",http://pbs.twimg.com/profile_images/667155803535638528/bGuoADfk_normal.jpg,449,289,72,en,http://www.twitter.com/tmj_ny_hrta/status/721318291008978944
7.21E+17,4/16/2016,12:44,PA Non-Metro Jobs,tmj_pa_usa_jobs,Follow this account for geo-targeted Other job tweets in Pennsylvania Non-Metro. Need help? Tweet us at @CareerArc!,"Can you recommend anyone for this #job? https://t.co/M9GGzR5myT #Allentown, PA #Hiring #CareerArc",,,40.6084305,-75.4901833,US,"Allentown, PA",http://pbs.twimg.com/profile_images/666900325903659008/hu9u5t7a_normal.jpg,843,540,61,en,http://www.twitter.com/tmj_pa_usa_jobs/status/721318289910018052
7.21E+17,4/16/2016,12:44,TMJ-FL Transport.,tmj_FL_transp,Follow this account for geo-targeted Transportation job tweets in Florida Non-Metro. Need help? Tweet us at @CareerArc!,"This #Transportation #job might be a great fit for you: Truck Driver, Class A - Full Time - https://t.co/9e4R2AsNmW #POMPANOBEACH, FL",,,26.2378597,-80.1247667,US,"Pompano Beach, FL",http://pbs.twimg.com/profile_images/668429377235881986/C6GaIpva_normal.jpg,367,286,62,en,http://www.twitter.com/tmj_FL_transp/status/721318289482186752
7.21E+17,4/16/2016,12:44,Alejandro Cháves,alejand92660840,"hola, buenas tardes....la idea de crear esta cuenta es con la finalidad de que nuestra pequeña Empresa este a la vista de mas personas en el Mundo...Herrería A.",Buenos días...,,,19.4180846,-102.0135184,MX,"Uruapan, Michoacán de Ocampo",http://pbs.twimg.com/profile_images/720401363549556737/V7wQb14b_normal.jpg,11,83,3,es,http://www.twitter.com/alejand92660840/status/721318289431859200
7.21E+17,4/16/2016,12:44,Jobs at Oracle,JobsAtOracle,The global feed for jobs at Oracle. #OracleTalent,"Want to work in #SantaMonica, CA? View our latest opening: https://t.co/eopkeSnzMv #IT #ExploreOracle #Job #Jobs #Hiring",,,34.0194543,-118.4911912,US,"Santa Monica, CA",http://pbs.twimg.com/profile_images/580520300816818176/5JcgHw8q_normal.png,4241,2283,944,en,http://www.twitter.com/JobsAtOracle/status/721318289180200963
7.21E+17,4/16/2016,12:44,TMJ-MI Retail Jobs,tmj_mi_retail,Follow this account for geo-targeted Retail job tweets in Michigan Non-Metro. Need help? Tweet us at @CareerArc!,"Speedway #Retail #Job: Manager Trainee-Retail Sales (#Wyoming, MI) https://t.co/E4kFxiSJCr #Jobs #Hiring #CareerArc",,,42.9133602,-85.7053085,US,"Wyoming, MI",http://pbs.twimg.com/profile_images/667080726261555201/rReGdUnf_normal.jpg,454,304,72,en,http://www.twitter.com/tmj_mi_retail/status/721318287905128449
7.21E+17,4/16/2016,12:44,Beej Powers,beejpowers,"dad, massage therapist, artist, writer, consumer","I'm at Virginia Tech - @vtnews in Blacksburg, VA https://t.co/8MAog8jeKh",,,37.22764602,-80.42211056,US,"Blacksburg, VA",http://pbs.twimg.com/profile_images/630858405855555584/dEDw6Edz_normal.jpg,303,540,25,en,http://www.twitter.com/beejpowers/status/721318286953066496
7.21E+17,4/16/2016,12:44,TMJ-MA Mgmt. Jobs,tmj_ma_mgmt,Follow this account for geo-targeted Business/Mgmt. job tweets in Massachusetts Non-Metro. Need help? Tweet us at @CareerArc!,"Robert Half Finance &amp; Accounting: Office Manager/Operations Manager/Practice Manager (#Canton, MA) https://t.co/l9doHa7QB0 #BusinessMgmt",,,42.233283,-71.0854325,US,"Milton, MA",http://pbs.twimg.com/profile_images/669773832505290752/U9Lm_8Rs_normal.jpg,340,252,54,en,http://www.twitter.com/tmj_ma_mgmt/status/721318285631827969
7.21E+17,4/16/2016,12:44,Keisha Frazier,feelgoodskin,"Skincare therapist fun loving & inspiring! More than beauty business! An enhanced lifestyle. Oh, I wrap too :) #BeEnhanced 214-566-6500","Headed to KC for family, fun and of course food! #thebest #BBQ (@ Oklahoma @CityOfokc in Oklahoma City, OK, OK) https://t.co/DFdU9pLqRb",,,35.49292708,-97.50645161,US,"Oklahoma City, OK",http://pbs.twimg.com/profile_images/705248527098597377/Z7QpkovD_normal.jpg,1405,2023,40,en,http://www.twitter.com/feelgoodskin/status/721318284793143296
7.21E+17,4/16/2016,12:44,?? Dewey Johnston ??,dewey_johnston,"Lions, Tigers and UofM ?? fan and single dad to 4 wonderful girls. Bleeding that Maize and Blue cause reasons. I am a runner ... feels good to say that",Race day!!! It couldn't be more beautiful out. Praise God for spring finally showing up ????… https://t.co/FO3i1ZiJGd,,,43.57087,-84.29327,US,"Michigan, USA",http://pbs.twimg.com/profile_images/668958687684349952/JZDH4dx7_normal.jpg,1013,2173,13,en,http://www.twitter.com/dewey_johnston/status/721318283497115650
7.21E+17,4/16/2016,12:44,Jobs at Dressbarn,dressbarnjobs,"When you work at dressbarn, EVERY DAY is an opportunity to Inspire Women to Look and Feel Beautiful. Learn more @ http://t.co/5ffoj1IC4b","#Sales #Job in #AnnArbor, MI: Temp Sales Associate-dressbarn at dressbarn https://t.co/q5vpBNqkZ8 #Jobs #Hiring",,,42.2660881,-83.7146001,US,"Ann Arbor, MI",http://pbs.twimg.com/profile_images/489866378732531712/F3PCgBwh_normal.jpeg,257,15,450,en,http://www.twitter.com/dressbarnjobs/status/721318281391374336
7.21E+17,4/16/2016,12:44,Brad Hall,circabrad,,"I'm at Apple Store, Rideau in Ottawa, ON https://t.co/BgZbeE3e2Y",,,45.42509,-75.69101,CA,"Ottawa, Ontario",http://pbs.twimg.com/profile_images/378800000800563374/e89fcf1210181f0eb815701d8cfaada7_normal.jpeg,150,409,7,en,http://www.twitter.com/circabrad/status/721318280967954432
7.21E+17,4/16/2016,12:44,Shane Barger,BargerShane,Follower of Christ; Married to my best friend; 6 wonderful Children,Spring soccer season begins... coolfryz @jessicabarger2 @… https://t.co/5zUDFKBv8C,,,28.0215549,-81.7807999,US,"Jan Phyl Village, FL",http://pbs.twimg.com/profile_images/378800000271652146/0dd732b6549cbb4ec2a8dae94073f3c2_normal.jpeg,41,221,,en,http://www.twitter.com/BargerShane/status/721318277180366848
7.21E+17,4/16/2016,12:44,CJ Torres,cjtorres7,#BLA #GBA #CCB,"I'm at Los Angeles International Airport (LAX) - @flylaxairport in Los Angeles, CA https://t.co/rCVIJrXCMX",,,33.94389398,-118.4050226,US,"Los Angeles, CA",http://pbs.twimg.com/profile_images/504854544309030912/3yql-QFS_normal.jpeg,619,580,30,en,http://www.twitter.com/cjtorres7/status/721318270276608001
7.21E+17,4/16/2016,12:44,Brian Hoyne,bhoyne71,,Good morning!!! #artofvisuals #stdothis #sombrexplore #exploremn #retroluxaholics… https://t.co/ZpXvUm8Yga,,,45.1832,-93.8655,US,"Buffalo, MN",http://pbs.twimg.com/profile_images/683741732597444608/uDAPfhgc_normal.jpg,67,242,5,en,http://www.twitter.com/bhoyne71/status/721318270008221697
7.21E+17,4/16/2016,12:44,Martín Nelson,forsomemasses,No controles (mi forma de pensar).,#iwantadog when it gets dark my dog will bark at any passers-by #introspective #igdc @ Adams Morgan https://t.co/UetHtybDSO,,,38.922515,-77.042819,US,"Washington, DC",http://pbs.twimg.com/profile_images/719278313106227200/58HMdONN_normal.jpg,1080,1063,41,en,http://www.twitter.com/forsomemasses/status/721318268909305856
7.21E+17,4/16/2016,12:44,Cintas Careers,CintasCareers,"Looking for a career, and not just another job? Consider Cintas, where the spirit is the difference. Follow us for our latest career opportunities.","This #Manufacturing #job might be a great fit for you: Warehouse Processor - https://t.co/DwEKN4ymd0 #Henrietta, NY https://t.co/xKcyoTa51g",,,43.0592452,-77.6128039,US,"Henrietta, NY",http://pbs.twimg.com/profile_images/760490442/cintas_careers_logo_normal.jpg,306,2,359,en,http://www.twitter.com/CintasCareers/status/721318264517701632
7.21E+17,4/16/2016,12:44,Josh Spencer ??,JoshTrevil,"Ser mexicano es un privilegio, ser tamaulipeco es un orgullo, ser Tampiqueño es un lujo, pero ser Treviano es un verdadero orgasmo.","Buen día, ya listo para irme al #gym 

Príncipe hermoso, te amo. @ La Calle De La Amargura https://t.co/0Xr4eRxk63",,,22.28205338,-97.89039923,MX,"Tampico, Tamaulipas",http://pbs.twimg.com/profile_images/718167365737848832/_52L6ERr_normal.jpg,456,585,3,es,http://www.twitter.com/JoshTrevil/status/721318263318319105
7.21E+17,4/16/2016,12:44,Mercy Jobs,MercyJobs,"When you join Mercy, you are part of a community that is embracing a new way to care for people while building your skills and growing in your career.","#EmergencyMedicine alert: Patient Care Associate - Medical... | Mercy | #Washington, MO https://t.co/GSsBergQ7s https://t.co/vMpwMFlZsD",,,38.5581072,-91.0120878,US,"Washington, MO",http://pbs.twimg.com/profile_images/472075334662119425/BVxsLuHr_normal.jpeg,351,4,249,fr,http://www.twitter.com/MercyJobs/status/721318257261551617
7.21E+17,4/16/2016,12:44,The Golden Page,fredyad77,"Es el momento para expresar mis pensamientos, vivencias y emociones.
MCD. #Dentist #Lovemyjob",#Team @ Especialidades Dentales https://t.co/TxzXwGGwJP,,,25.8875,-97.50051,MX,"Matamoros, Tamaulipas",http://pbs.twimg.com/profile_images/622880017119219712/L81BHh8P_normal.jpg,59,325,2,es,http://www.twitter.com/fredyad77/status/721318255231700998
7.21E+17,4/16/2016,12:44,chill_a_kill,Chilaquilpower,"Un super heroe mexicano, protector de todos los crudos,con poderes basados en la tortilla, pollo, chile y huevo, acerrimo rival del chipotle vengador...","Buenos días alegría,buenos días señor sol.... (@ Entrada a Irapuato) https://t.co/VNmlwpxjpG https://t.co/zx7J3eJmt5",,,20.7516412,-101.3392417,MX,"Irapuato, Guanajuato",http://pbs.twimg.com/profile_images/1444883605/imagesCAYBN375_normal.jpg,141,157,4,es,http://www.twitter.com/Chilaquilpower/status/721318254564782080
7.21E+17,4/16/2016,12:44,David G. Armstrong,dgarmstrong,"Dedicated to amputation prevention, wound healing, diabetic foot, biotechnology and the intersection between medical devices and consumer electronics.","Ready or not, @ucsfvascular here comes uofa SALSA! @ Tucson International Airport https://t.co/IHRkO0mos0",,,32.1210018,-110.9376723,US,"Tucson, AZ",http://pbs.twimg.com/profile_images/228829630/DFCON06_0556_3_normal.JPG,5711,3791,288,en,http://www.twitter.com/dgarmstrong/status/721318254141140992
7.21E+17,4/16/2016,12:44,Jamey Ferguson,jameybellamax,I'm a teacher. I love my career for all the cliche reasons and more.,Chewbacca!!!! @ ESPN Wide World of Sports https://t.co/4NktxhmYNd,,,28.3377256,-81.55627528,US,"Florida, USA",http://pbs.twimg.com/profile_images/700706059220946944/2O9K5ei4_normal.jpg,15,65,,en,http://www.twitter.com/jameybellamax/status/721318253562212352
7.21E+17,4/16/2016,12:44,maurices careers,mauricescareers,Love Fashion? Join our team! @maurices is a world-class specialty retailer that caters to young-at-heart fashionistas. Check here for #job opportunities.,"If you're a #Retail professional in #Owosso, MI, check out this #job: https://t.co/lPhsQK1jmY #LoveFashionLetsTalk https://t.co/2nCqCTgqnC",,,42.9978049,-84.1766358,US,"Owosso, MI",http://pbs.twimg.com/profile_images/415180880005455872/g0aid-0R_normal.png,386,26,283,en,http://www.twitter.com/mauricescareers/status/721318251708309504
7.21E+17,4/16/2016,12:44,zebr@,zemercado,,#smart2016 @ Dave Ramsey's Smart Conference at Calvary Temple https://t.co/84dd5ZRdrj,,,28.58737917,-81.37474954,US,"Fairview Shores, FL",http://pbs.twimg.com/profile_images/378800000709481777/3d3f6f30fcf456c9566f74b2665b8ed1_normal.jpeg,33,98,,en,http://www.twitter.com/zemercado/status/721318249401597952
7.21E+17,4/16/2016,12:44,TMJ-CIN Retail Jobs,tmj_cin_retail,"Follow this account for geo-targeted Retail job tweets in Cincinnati, OH. Need help? Tweet us at @CareerArc!","Want to work at Sperry? We're #hiring in #Cincinnati, OH! Click for details: https://t.co/xBKoSy36AM #Retail #Job #Jobs #CareerArc",,,39.2027663,-84.3774247,US,"Kenwood, OH",http://pbs.twimg.com/profile_images/668620583765020672/b0XuYDcK_normal.jpg,424,309,51,en,http://www.twitter.com/tmj_cin_retail/status/721318248654868481
7.21E+17,4/16/2016,12:44,Florida Nursing Jobs,tmj_fl_nursing,Follow this account for geo-targeted Healthcare-Nursing job tweets in Florida Non-Metro. Need help? Tweet us at @CareerArc!,"#Nursing #Job alert: Registered Nurse (RN) / Intensive Care... | Accountable Healthcare Staffing | #VeroBeach, FL https://t.co/RuUOo6Kfxa",,,27.6386434,-80.3972736,US,"Vero Beach, FL",http://pbs.twimg.com/profile_images/667130543423647744/AZsNL4LC_normal.jpg,606,342,83,en,http://www.twitter.com/tmj_fl_nursing/status/721318248453541888
7.21E+17,4/16/2016,12:44,TMJ-SC Retail Jobs,tmj_sc_retail,Follow this account for geo-targeted Retail job tweets in South Carolina Non-Metro. Need help? Tweet us at @CareerArc!,"Customer Service Associate II - Lowe's Stores: (#Aiken, SC) https://t.co/XRC0y4ItOt #Retail #Job #Jobs #Hiring",,,33.5604168,-81.7195533,US,"Aiken, SC",http://pbs.twimg.com/profile_images/667050125089333248/689S_zim_normal.jpg,438,300,84,en,http://www.twitter.com/tmj_sc_retail/status/721318247820169216
7.21E+17,4/16/2016,12:44,Winn-Dixie Careers,WDCareers,Join our WINN-ing team and help make the lives of our customers and fellow associates FUN! Winn-Dixie is one of the nation's largest food retailers.,"We're #hiring! Read about our latest #job opening here: Intern, Marketing - https://t.co/dn7wHCdWan #JACKSONVILLE, FL #Marketing",,,30.3247918,-81.7317123,US,"Edgewood, FL",http://pbs.twimg.com/profile_images/636616310403653633/sIs1Iqbk_normal.png,527,252,336,en,http://www.twitter.com/WDCareers/status/721318244749934596
7.21E+17,4/16/2016,12:44,TMJ-OH HRTA Jobs,tmj_oh_hrta,Follow this account for geo-targeted Hospitality/Restaurant/Tourism job tweets in Ohio Non-Metro. Need help? Tweet us at @CareerArc!,Want to work in ? View our latest opening: https://t.co/6ysqkBCkSA #Hospitality #Veterans #Job #Jobs #Hiring #CareerArc,,,41.0237339,-80.6306546,US,"Boardman, OH",http://pbs.twimg.com/profile_images/667856742198280193/wqzPiaOv_normal.jpg,366,284,70,en,http://www.twitter.com/tmj_oh_hrta/status/721318244041162753
7.21E+17,4/16/2016,12:44,joe anderson,art_joeanderson,,#sneakpeek. Getting close to finishing this up. Do you know who it is? #markers #copic… https://t.co/geuSP5Vvxr,,,43.06666667,-89.4,US,"Wisconsin, USA",http://pbs.twimg.com/profile_images/2957778320/dea95cd92e7c14b023c975ce67ee59f8_normal.jpeg,377,1869,14,en,http://www.twitter.com/art_joeanderson/status/721318240144789504
7.21E+17,4/16/2016,12:44,Trent Polack,mittense,pretty much just stuff. saving the earth as a Sr. Technical Designer at Planet3 and CEO at Joy Machine. also i love caps lock.,APARTMENT OF THE FUTURE PROJECT. Now music/visualizer driven.… https://t.co/8BBEmgxxP0,,,38.8951,-77.0367,US,"Washington, DC",http://pbs.twimg.com/profile_images/636734289703403520/OXyAKL6J_normal.jpg,2852,483,256,en,http://www.twitter.com/mittense/status/721318239142223872
7.21E+17,4/16/2016,12:44,Missed Connections,NYC_Missed,,#NYCmissed Spectacular Blue Top - m4w (Road Noise) https://t.co/TTkojwPdST,,,40.71098913,-74.00404355,US,"Manhattan, NY",http://pbs.twimg.com/profile_images/573564332287467520/rBPnj0EA_normal.jpeg,135,92,12,en,http://www.twitter.com/NYC_Missed/status/721318238861176832
7.21E+17,4/16/2016,12:44,Dallas Johnson,DallasJ1977,Too much to type. Just ask me.,Why I'm doing now at work on a Saturday morning !! #studytime @ PNC Bank - Cleveland Main https://t.co/9y9yN0Ho68,,,41.5007075,-81.6873877,US,"Cleveland, OH",http://pbs.twimg.com/profile_images/716222944956039168/05su4el4_normal.jpg,299,1045,22,en,http://www.twitter.com/DallasJ1977/status/721318237888126976
7.21E+17,4/16/2016,12:44,Debby Frederes,debbyfrederes,,"Could not be more proud of these kids! 

#spartanrace #beastmode #crazydna #theobstaclestho @… https://t.co/jidH8KPiP9",,,32.27707672,-84.94764709,US,"Alabama, USA",http://pbs.twimg.com/profile_images/84155456/Debby1_normal.PNG,419,597,5,en,http://www.twitter.com/debbyfrederes/status/721318237607223298
7.21E+17,4/16/2016,12:44,Jon Stroop,jpstroop,"library IT, data, images @pulibrary. #iiif, #pcdm, #projecthydra
Parent w/ @abigailrayner.
If you're #glutenfree and not #celiac, don't bother & don't follow.","Science fair 2016 @ Hopewell, New Jersey https://t.co/8sEHwGhu1q",,,40.389,-74.764,US,"Hopewell, NJ",http://pbs.twimg.com/profile_images/217358067/me_normal.jpg,218,277,18,en,http://www.twitter.com/jpstroop/status/721318236151787520
7.21E+17,4/16/2016,12:44,amjaad alobaidi,amjaadalobaidi,????? ??????? graphic designer ???? ?????? ????? ???????? ?? ???? ??????? ?????? .. ????? ?????? ?? ????? ???? https://t.co/9RUArZresJ,"#?????_??????? ##apple #art ????? ?????? ??? @ Apple Store, Georgetown https://t.co/KA8HjnLtUU",,,38.905935,-77.062382,US,"Washington, DC",http://pbs.twimg.com/profile_images/718491632786661377/_wdhR0iU_normal.jpg,842,921,7,es,http://www.twitter.com/amjaadalobaidi/status/721318230967590913
7.21E+17,4/16/2016,12:44,Derek Ferreira,eton_rifles,"Single, no kids, Enjoy sports and video games. riding my bike. Walking. working out. very friendly","I'm at International Tennis Hall of Fame Museum in Newport, RI https://t.co/vVZcFzQInK",,,41.48277179,-71.30834993,US,"Newport, RI",http://pbs.twimg.com/profile_images/585112561307279360/iysMhpA1_normal.jpg,809,2005,30,en,http://www.twitter.com/eton_rifles/status/721318230757871617
7.21E+17,4/16/2016,12:44,UConn Women's Rugby,ucwomensrugby,Division I Club Team at the University of Connecticut | USA Rugby Fall 2015 National Champions #UCWRFC Instagram: @ucwomensrugby,"Last night, #UCWRFC took home two team awards from the Club Sports Banquet: People's Choice and… https://t.co/OLoMmPIN9L",,,41.806206,-72.254184,US,"Storrs, CT",http://pbs.twimg.com/profile_images/647500976820256768/xG2a356R_normal.jpg,703,214,9,en,http://www.twitter.com/ucwomensrugby/status/721318225061916672
7.21E+17,4/16/2016,12:44,Beach Cheer,BeachCheerAth,"We are a cheer and tumble gym in Toronto, Ontario offering competitive and recreation options for athletes age 3-18!",Way to go jesscopeland ! #beachcheerathletics #season3 #makingwaves?? #torontocheerleading… https://t.co/S4xQaeakgH,,,43.71861,-79.30895,CA,"Toronto, Ontario",http://pbs.twimg.com/profile_images/716445982163124224/Ay1thLTv_normal.jpg,277,248,8,en,http://www.twitter.com/BeachCheerAth/status/721318221379284992
7.21E+17,4/16/2016,12:43,Billings Clinic Jobs,ClinicCareers,Billings Clinic. Big Sky. Big Opportunities. following doesn't = endorsement,"Billings Clinic #Nursing #Job: CNA, Aspen Meadows (#Billings, MT) https://t.co/gfmHahLDjE #rn #rnjobs #MadeWithLove https://t.co/3NNOPKqZ8T",,,45.7832856,-108.5006904,US,"Billings, MT",http://pbs.twimg.com/profile_images/672128348/BC_2C_V_Pos_normal.jpg,194,140,50,en,http://www.twitter.com/ClinicCareers/status/721318220200681476
7.21E+17,4/16/2016,12:43,Park Ave CDs,ParkAveCDs,audio dealership in multiple formats,Nothing like some records first thing in the morning. Happy #recordstoreday everyone! #rsd16 @… https://t.co/ZaYY4EMif8,,,28.5676951,-81.3465833,US,"Winter Park, FL",http://pbs.twimg.com/profile_images/101875765/neon_normal.jpg,4863,163,168,en,http://www.twitter.com/ParkAveCDs/status/721318219307294720
7.21E+17,4/16/2016,12:43,Richard Durrer,RikterSr,,I'm at Durrer's in Guelph https://t.co/ZVHvaus4Pj,,,43.47370143,-80.1805999,CA,"Puslinch, Ontario",http://pbs.twimg.com/profile_images/1107784164/IMG_0049_normal.JPG,58,365,7,en,http://www.twitter.com/RikterSr/status/721318218661498880
7.21E+17,4/16/2016,12:43,SHC Careers,WorkWithSHC,"Work for the Best! Whether you want to work across town or across the country, we have thousands of great health care jobs available at top facilities.","Supplemental Health Care: L&amp;D RN needed ASAP (#Covington, GA) https://t.co/pVTqcV1vHN #Healthcare #Job #Jobs https://t.co/SHCvgxzk50",,,33.5967815,-83.8601827,US,"Covington, GA",http://pbs.twimg.com/profile_images/481835416450912256/u4dFgn2F_normal.jpeg,926,1,675,en,http://www.twitter.com/WorkWithSHC/status/721318213930209280
7.21E+17,4/16/2016,12:43,TMJ-CT-US Sales Jobs,tmj_ct_sales,Follow this account for geo-targeted Sales job tweets in Connecticut Non-Metro. Need help? Tweet us at @CareerArc!,"Interested in a #Sales #job near #Stamford, CT? This could be a great fit: https://t.co/6P6igb6pdU #Hiring #CareerArc",,,41.0534302,-73.5387341,US,"Stamford, CT",http://pbs.twimg.com/profile_images/669501205660307456/H_u7E0___normal.jpg,448,304,80,en,http://www.twitter.com/tmj_ct_sales/status/721318205319290880
7.21E+17,4/16/2016,12:43,scarlett lam,planetscarlett,live to the point of tears - Camus #lamonthelam,early bird gets the... ????#newyorkiloveyou #notcoachella @ John F.… https://t.co/quUrh9VHBW,,,40.63972222,-73.77888889,US,"Queens, NY",http://pbs.twimg.com/profile_images/474952020730728448/SZHuqe_k_normal.jpeg,63,52,2,en,http://www.twitter.com/planetscarlett/status/721318205206237184
7.21E+17,4/16/2016,12:43,Russ Louch,dailyyak,"a somewhat geeky stay-at-home dad, scouter and small business owner (the rest changes without notice)","The first time I staffed out here at camp, 6 years ago, I was hired as the archery instructor.… https://t.co/baj4mnoZy7",,,30.16407817,-97.26351343,US,"Texas, USA",http://pbs.twimg.com/profile_images/689907287201226752/Vi7i7ciW_normal.jpg,243,205,14,en,http://www.twitter.com/dailyyak/status/721318204778405888
7.21E+17,4/16/2016,12:43,TMJ-PA Sales Jobs,tmj_pa_sales,Follow this account for geo-targeted Sales job tweets in Pennsylvania Non-Metro. Need help? Tweet us at @CareerArc!,"Want to work in #Limerick, PA? View our latest opening: https://t.co/zUw2KkRKkb #Sales #Job #Jobs #Hiring #CareerArc",,,40.1982911,-75.5393155,US,"Pennsylvania, USA",http://pbs.twimg.com/profile_images/667170933895905280/Iz73kYOh_normal.jpg,472,310,131,en,http://www.twitter.com/tmj_pa_sales/status/721318203817766912
7.21E+17,4/16/2016,12:43,TMJ-CLE Retail Jobs,tmj_cle_retail,"Follow this account for geo-targeted Retail job tweets in Cleveland, OH. Need help? Tweet us at @CareerArc!","Chico's #Retail #Job: Sales Lead (#Strongsville, OH) https://t.co/1UyqTMdXad #Jobs #Hiring",,,41.3198259,-81.8115051,US,"Strongsville, OH",http://pbs.twimg.com/profile_images/668475785045344256/2WXt2xC3_normal.jpg,384,312,53,en,http://www.twitter.com/tmj_cle_retail/status/721318202534268929
7.21E+17,4/16/2016,12:43,SONIC Jobs,SONICjobs,Check out our open positions to learn how you can WORK YOUR SPIRIT at #SONIC!,"SONIC Drive-In: Carhop/Skating Carhop (Server) (#SanAntonio, TX) https://t.co/sEMoGkAVZl #Hospitality #Job #Jobs #Hiring",,,29.5103024,-98.7615173,US,"Texas, USA",http://pbs.twimg.com/profile_images/542369912828604416/2N_NFwnN_normal.png,268,39,334,en,http://www.twitter.com/SONICjobs/status/721318202391678979
7.21E+17,4/16/2016,12:43,NYCHOUSERADIO.COM,NYCHOUSERADIO,Download your free apps now for Apple or GooglePlay search NYC HOUSE RADIO Free Live House Music 24/7,Yes! #goodmorning ?? great meeting ahead of me today...Stay tuned! As always #realhousemusic 24/7… https://t.co/6wtfgYevzo,,1,40.7142,-74.0064,US,"Manhattan, NY",http://pbs.twimg.com/profile_images/650120692374065152/wqasXB2w_normal.jpg,461,317,38,en,http://www.twitter.com/NYCHOUSERADIO/status/721318201305481216
7.21E+17,4/16/2016,12:43,MODA,ImDany_,"Bautister ?
17-12-14, 
06-01-15,
09-03-15,
07/08 

•Se que no estamos tan lejos, ambos vemos la misma luna•

Monroe",Felicidades!! Ya solo te falta un mesesito y ya corazón. Gracias por… https://t.co/mf9ixBwfAm,,,19.44632993,-99.11520401,MX,"Venustiano Carranza, Distrito Federal",http://pbs.twimg.com/profile_images/720675526755549185/BXkbK-jP_normal.jpg,130,63,3,es,http://www.twitter.com/ImDany_/status/721318199858479105
7.21E+17,4/16/2016,12:43,J. Martin,pastorjmartin,"Husband, Father, Pastor of Lighthouse Baptist Church, Soul Winner",#lbctractchallenge Day 4 Leave a Tract at a RedBox... @ Lighthouse… https://t.co/Qr82lCKAUP,,,34.80828,-87.655837,US,"Florence, AL",http://pbs.twimg.com/profile_images/663771781870809090/f3SPwg2r_normal.jpg,661,555,15,en,http://www.twitter.com/pastorjmartin/status/721318199850090496
7.21E+17,4/16/2016,12:43,TMJ-CLT Cosmo Jobs,tmj_clt_cosmo,"Follow this account for geo-targeted Cosmetology/Hairstylist job tweets in Charlotte, NC. Need help? Tweet us at @CareerArc!","Can you recommend anyone for this #job? Hair Stylist - https://t.co/jcAAC0eljT #Albemarle, NC #Cosmetology #Hiring #CareerArc",,,35.3415758,-80.177467,US,"Albemarle, NC",http://pbs.twimg.com/profile_images/692417474357301253/zSf0N7xV_normal.jpg,231,226,4,en,http://www.twitter.com/tmj_clt_cosmo/status/721318199485079552
7.21E+17,4/16/2016,12:43,Mark H. Johnson,mrsoulmarkj,TryingToStayFocusedOnTheRighteousPath|JesusFreak|SeekerofLIVEmusic|#Pebble|GEEK|ProudDad|??@TriciaKjohnson??|#Clemson,"Waiting on four new tires. Oh boy. (@ Starbucks in Greer, SC) https://t.co/5vSnAAhAL1",,,34.939286,-82.268051,US,"Greer, SC",http://pbs.twimg.com/profile_images/582647786438524928/JCqKo8IV_normal.jpg,300,634,21,en,http://www.twitter.com/mrsoulmarkj/status/721318197484482561
7.21E+17,4/16/2016,12:43,baduelo!!,baduel_,sOy RE fEliz CAramBa!!!,"Llegue tarde jejejeje (@ Universidad Del Valle De México - @uvmmexico in Miguel Hidalgo, DF) https://t.co/sn3AMfnCqb",,,19.41389213,-99.18730672,MX,"Miguel Hidalgo, Distrito Federal",http://pbs.twimg.com/profile_images/2349579676/image_normal.jpg,192,247,1,es,http://www.twitter.com/baduel_/status/721318195026661377
7.21E+17,4/16/2016,12:43,Christine A. Moore,camhatsNYC,"NYC hat designer, selling to specialty stores & boutiques. Official Milliner of Breeders' Cup, featured designer at Keeneland, Florida Derby & Preakness Stakes.","Ready for a fabulous day @keeneland today! It is #Toyota 's big day! While you are here, pick up… https://t.co/DIlfEVDOLh",,,38.0297,-84.4947,US,"Kentucky, USA",http://pbs.twimg.com/profile_images/2906694510/3bd66bfd9ee6d12962c2119113d70a14_normal.jpeg,1051,626,28,en,http://www.twitter.com/camhatsNYC/status/721318189435457536
7.21E+17,4/16/2016,12:43,Ivan Gaytan,solgaytan78,,"I'm at Aeropuerto Internacional de Monterrey (MTY) - @aeropuertodemty in Apodaca, NL https://t.co/hoxuTNjL2f",,,25.77781744,-100.1148999,MX,"Apodaca, Nuevo León",http://pbs.twimg.com/profile_images/674575909265866752/wahh73C1_normal.jpg,176,2088,7,es,http://www.twitter.com/solgaytan78/status/721318184842866688
7.21E+17,4/16/2016,12:43,Andrew Bearden,andrewbearden89,"Teaching Pastor for City Church Gainesville, Dir. for Bridge the City. I love seeing this generation rise up for Jesus & justice. We're all in this together!",15 Leadership today! Pumped to take my students to Truly Living Well… https://t.co/Gg06ZVzLXV,,,33.77565242,-84.39418985,US,"Atlanta, GA",http://pbs.twimg.com/profile_images/667539037750755329/7ZSBEkDB_normal.jpg,456,809,11,en,http://www.twitter.com/andrewbearden89/status/721318183689461760
7.21E+17,4/16/2016,12:43,Evan Bungum,EvanBungum,"Host of Backyard Pursuits TV™ - (Digital Marketing/Advertising Specialist)  Faith - Family - Hunting - Fitness 
LivingTheDream",My view for the morning #BYPTV2K16 #turkeyhunting #thunderchickens #turkeyhunting @ Whitewater… https://t.co/1uHmBWmJxt,,,44.05,-92.05,US,"Minnesota, USA",http://pbs.twimg.com/profile_images/718585683963588608/tNkAJ7X2_normal.jpg,1379,401,9,en,http://www.twitter.com/EvanBungum/status/721318182607286272
7.21E+17,4/16/2016,12:43,Jon Brooks,jbrealestatejax,Serving you as Your Real Estate Agent and Property Manager in Jacksonville & Amelia! Reliable. Responsive. With You Every Step of the Way. 904-570-1216.,??NEW LISTING COMING SOON!?? 4/2 off Kernan. Great neighborhood! Contact me for more details. Jon… https://t.co/3uj6FREIFo,,,30.3484646,-81.4856825,US,"Arlington, Neptune Beach",http://pbs.twimg.com/profile_images/709894228139053056/diKQrDG3_normal.jpg,3990,4161,41,en,http://www.twitter.com/jbrealestatejax/status/721318181512552448
7.21E+17,4/16/2016,12:43,Jobs at VA,JobsatVA,This is our #jobs feed. Follow @VACareers to connect.,"Can you recommend anyone for this #job? Physician (Hospitalist) - https://t.co/VGNpPyas2R #Richmond, VA #Physician https://t.co/V2kry2SwE4",,,37.5407246,-77.4360481,US,"Richmond, VA",http://pbs.twimg.com/profile_images/527141119344123904/_GQQe9Or_normal.png,662,1,634,en,http://www.twitter.com/JobsatVA/status/721318175464230912
7.21E+17,4/16/2016,12:43,Em's Boutique,ShopEms,,[em]broidered tassel top paired with chambray wide leg culottes. #ootd #lotd #fashion #style… https://t.co/JlsxFcm2Fq,,,29.98058,-90.12705,US,"Metairie, LA",http://pbs.twimg.com/profile_images/715156180729991168/rT8_9XZF_normal.jpg,404,411,53,en,http://www.twitter.com/ShopEms/status/721318174499717120
7.21E+17,4/16/2016,12:43,TMJ- ATL Health Jobs,tmj_atl_health,"Follow this account for geo-targeted Healthcare job tweets in Atlanta, GA. Need help? Tweet us at @CareerArc!","#Atlanta, GA #Healthcare #Job: Patient Care Tech II- Nights at Northside Hospital https://t.co/kmk3Op4Orx #Jobs #Hiring #CareerArc",,,33.9091884,-84.3540514,US,"Sandy Springs, GA",http://pbs.twimg.com/profile_images/667599597376700418/9W7KtbGd_normal.jpg,549,339,89,en,http://www.twitter.com/tmj_atl_health/status/721318164345139200
7.21E+17,4/16/2016,12:43,TMJ-MD-USA Jobs,tmj_md_usa_jobs,Follow this account for geo-targeted Other job tweets in Maryland Non-Metro. Need help? Tweet us at @CareerArc!,"Want to work at The Vitamin Shoppe? We're #hiring in #Gambrills, MD! Click for details: https://t.co/HP5RFnyrYZ #Job #Jobs #CareerArc",,,39.0345611,-76.6824442,US,"Odenton, MD",http://pbs.twimg.com/profile_images/668218054971527168/i0VW5vE8_normal.jpg,699,534,30,en,http://www.twitter.com/tmj_md_usa_jobs/status/721318162969460737
7.21E+17,4/16/2016,12:43,Shannon Shaw,Soponor,,@ El Paso https://t.co/GiIrxABayk,,,31.76201737,-106.486876,US,"El Paso, TX",http://pbs.twimg.com/profile_images/702660202961596416/GPQe7yPI_normal.jpg,21,5,82,es,http://www.twitter.com/Soponor/status/721318162504007681
7.21E+17,4/16/2016,12:43,Cañas,javitoc27,"Jugador de Padel del 98. ? Madrid ? Patrocinado por VIBOR-A // Canterbury , Daldent , Fisiolution ...  ||  XXVII  ||               Snapchat : javitoc27",Después de un tiempo se que volverás a confiar en mi @ Hollywood https://t.co/5Ol9dcbmyS,,,34.10150824,-118.3269355,US,"Los Angeles, CA",http://pbs.twimg.com/profile_images/684044223260286976/uP9eWrgD_normal.jpg,607,685,4,es,http://www.twitter.com/javitoc27/status/721318162147504128
7.21E+17,4/16/2016,12:43,Tyco Careers,TycoCareers,The world’s largest pure-play fire and security company is looking for talented people.  Join the winning team!,"Join the Tyco team! See our latest #SkilledTrade #job opening here: https://t.co/43726NfL1C #Horsham, PA #Hiring",,,40.1784422,-75.1285061,US,"Horsham, PA",http://pbs.twimg.com/profile_images/505351998284107776/gWf9-mpG_normal.jpeg,1072,138,771,en,http://www.twitter.com/TycoCareers/status/721318161228763136
7.21E+17,4/16/2016,12:43,TMJ-BAL Mgmt. Jobs,tmj_bal_mgmt,"Follow this account for geo-targeted Business/Mgmt. job tweets in Baltimore, MD. Need help? Tweet us at @CareerArc!","#BusinessMgmt #Job in #Columbia, MD: Net Web Developer \iVideo at AT&amp;T https://t.co/Wzdu88pxtO #Jobs #Hiring #CareerArc",,,39.2037144,-76.8610462,US,"Maryland, USA",http://pbs.twimg.com/profile_images/671121894372859904/hbTGWnAx_normal.jpg,340,254,31,en,http://www.twitter.com/tmj_bal_mgmt/status/721318160972943360
7.21E+17,4/16/2016,12:43,TMJ-RCH Mgmt. Jobs,tmj_rch_mgmt,"Follow this account for geo-targeted Business/Mgmt. job tweets in Richmond, VA. Need help? Tweet us at @CareerArc!","VCU Health System #BusinessMgmt #Job: Perform Improve Coor (#Richmond, VA) https://t.co/g23yK4hATH #Jobs #Hiring #CareerArc",,,37.5396582,-77.4296882,US,"Richmond, VA",http://pbs.twimg.com/profile_images/685194615679369216/WlfL2MUD_normal.jpg,324,255,31,en,http://www.twitter.com/tmj_rch_mgmt/status/721318159316160513
7.21E+17,4/16/2016,12:43,jami floyd,jamifloyd,@WNYC Host & Legal Analyst,Spring comes to nypl @ NYPL The New York Public Library https://t.co/n2rRXLLJfX,,,40.75299643,-73.98152454,US,"Manhattan, NY",http://pbs.twimg.com/profile_images/637994757172658176/GH6a87Kk_normal.jpg,2821,2000,89,en,http://www.twitter.com/jamifloyd/status/721318157324009472
7.21E+17,4/16/2016,12:43,Me??,Nikas_Barb,Follow Me On Insta @_OnikaRoyalty,So I Uhhh Wanna go back nd see the movie ???? @ Brooklyn Bridge https://t.co/iMSvDtf85T,2,1,40.70415321,-73.99499067,US,"New York, NY",http://pbs.twimg.com/profile_images/710790109281525761/WEvwzXHp_normal.jpg,679,497,6,en,http://www.twitter.com/Nikas_Barb/status/721318156325822464
7.21E+17,4/16/2016,12:43,Rob,chainfury,Don't you wish your girlfriend was hot like me?,"Little League Opening Day (@ Short Beach in Stratford, CT) https://t.co/Wq2QFscKkT",,,41.16217583,-73.11039064,US,"Stratford, CT",http://pbs.twimg.com/profile_images/689979536038035459/13yAKcJB_normal.jpg,51,222,1,en,http://www.twitter.com/chainfury/status/721318154031534080
7.21E+17,4/16/2016,12:43,Rocco Restaurant,Roccobythelake,"Rocco Restaurant and Bar is located in the beautiful Humber Bay Shores area. Daily specials, weekend Brunch and only fresh ingredients. #wine #Italian #Brunch",WHAT BETTER WAY TO START YOUR SATURDAY THEN WITH BRUNCH AT ROCCO RESTAURANT AND BAR. SERVING… https://t.co/CrnQ76YY9P,,,43.6299599,-79.47683,CA,"Toronto, Ontario",http://pbs.twimg.com/profile_images/720731511486562306/SOCMispS_normal.jpg,112,210,10,en,http://www.twitter.com/Roccobythelake/status/721318153360420864
7.21E+17,4/16/2016,12:43,JH LW,TheRealJHLW,"Fashion & Lifestyle blogger based in Paris  business inquieries : contact@jhlw.fr - 

http://t.co/0KdwB8xOOi
snapchat : jhlw81","I jump so high I can touch the stars ?????? 

#jhlw #paris #france #london #italy #dubai… https://t.co/ukdoTFMz1n",,,34.11884489,-118.300462,US,"Los Angeles, CA",http://pbs.twimg.com/profile_images/621247859325845504/f_10MXaw_normal.jpg,117,84,46,en,http://www.twitter.com/TheRealJHLW/status/721318152735330304
7.21E+17,4/16/2016,12:43,Kimy Stewart,BhamEstateSales,Birmingham Alabama's Estate Sale Experts!,"Dropping off woot (@ Little Free Library on Highland Ct in Birmingham, AL) https://t.co/5niurRJU1f https://t.co/xLzk6hiW9A",,,33.50330494,-86.78687684,US,"Birmingham, AL",http://pbs.twimg.com/profile_images/697816489773105152/z8Ko7PWu_normal.jpg,1261,5002,2,en,http://www.twitter.com/BhamEstateSales/status/721318151078690817
7.21E+17,4/16/2016,12:43,wittywicks,wittywicks,100% soy wax and hand poured in small batches ensuring superior quality. I only use the highest quality soy wax and  essential oils.,Erin is set up today at Longbranch Park ready for the Autism Walk today! She has the beautiful… https://t.co/gtUr6Ii4X2,,,43.1175,-76.24388889,US,"Liverpool, NY",http://pbs.twimg.com/profile_images/2170380253/538736_265637113524245_191390764282214_582475_71191122_n_normal.jpg,582,334,17,en,http://www.twitter.com/wittywicks/status/721318143117754368
7.21E+17,4/16/2016,12:43,511 New York,511NY,Traffic & transit updates for all of New York State provided by New York State 511. Visit the website for more feeds.,Incident on #I678 NB from Exit 4 -  Liberty Avenue to Exit 8 - Main Street https://t.co/L4dUe9v6eb,,,40.688999,-73.808799,US,"Queens, NY",http://pbs.twimg.com/profile_images/307131779/511twitlogo_normal.png,1285,206,192,en,http://www.twitter.com/511NY/status/721318142870429697
7.21E+17,4/16/2016,12:43,511 New York,511NY,Traffic & transit updates for all of New York State provided by New York State 511. Visit the website for more feeds.,Cleared: Incident on #I90 WB from Exit 6; US 9 to Exit 5A; Corporate Woods Boulevard,,,42.672199,-73.7565,US,"New York, USA",http://pbs.twimg.com/profile_images/307131779/511twitlogo_normal.png,1285,206,192,en,http://www.twitter.com/511NY/status/721318141733810178
7.21E+17,4/16/2016,12:43,511NY - Albany,511nyAlbany,Traffic & transit updates for the Capital Region Albany Saratoga area provided by New York State 511. Visit the website for more feeds.,Cleared: Incident on #I90 WB from Exit 6; US 9 to Exit 5A; Corporate Woods Boulevard,,,42.672199,-73.7565,US,"New York, USA",http://pbs.twimg.com/profile_images/307159204/511twitlogo_normal.png,2700,4,168,en,http://www.twitter.com/511nyAlbany/status/721318141603803136
7.21E+17,4/16/2016,12:43,Shawn J. Roberts,shawnJroberts,"thankfully saved by God's grace & trying to share God's love as I have received; husband, father of 2 boys, attorney;",Starting our day at the Taj Mahal of high school tennis facilities @ Heritage Hall OKC https://t.co/HrxEURc0Vk,,,35.58991823,-97.54247324,US,"Oklahoma City, OK",http://pbs.twimg.com/profile_images/640533586253209600/R2tH0X6y_normal.jpg,1221,504,75,en,http://www.twitter.com/shawnJroberts/status/721318141402476545
7.21E+17,4/16/2016,12:43,Kate Ming-Sun,kmsoutdoors,Writer + Photographer + Wilderness Guide: Outdoors. Adventure. Travel.,"150 person captive audience in an hour and fifteen minutes. *gulp*

#kwcanoe @ Princess Cinemas https://t.co/vwSn3df25p",,,43.46667174,-80.52272419,CA,"Waterloo, Ontario",http://pbs.twimg.com/profile_images/547036393449336832/PhDVg-nO_normal.jpeg,3397,2837,145,en,http://www.twitter.com/kmsoutdoors/status/721318139355602944
7.21E+17,4/16/2016,12:43,Quentin T. Harris,QuentinHarris21,ACTOR |NC??ATL??LA|. Radio Personality (Q in the Streets) WTNT 107.7,"Menteee Thanks Youngin!! #BIRTHDAYWEEKEND ???? #DreamsAreReal 

#Repost @saveysofly with… https://t.co/PSMqu5g0FX",,,33.82500042,-84.36655904,US,"Atlanta, GA",http://pbs.twimg.com/profile_images/688566654188523520/Urhp1Odr_normal.jpg,1299,1007,13,en,http://www.twitter.com/QuentinHarris21/status/721318138881699842
7.21E+17,4/16/2016,12:43,al loginow,aloginow,"preach the gospel, die, be forgotten.",Just posted a photo @ William Beaumont hospital royal oak https://t.co/AoyuxeRsIS,,,42.51491603,-83.19163746,US,"Royal Oak, MI",http://pbs.twimg.com/profile_images/680492072978247680/lfqsO2LW_normal.jpg,302,559,11,en,http://www.twitter.com/aloginow/status/721318137128300545
7.21E+17,4/16/2016,12:43,BeerStudy,BeerStudy,"A comfortable spot to enjoy great craft beer, conspire with friends, and cultivate your beer stash.
Open Noon-Midnight every day",Triple C Smoked Amber now available on tap. https://t.co/9mXds2YBaX @triplecbrew #BeerMenus,,,35.9105474,-79.0642914,US,"Chapel Hill, NC",http://pbs.twimg.com/profile_images/459143470561906688/bQRwuTry_normal.jpeg,1763,153,99,en,http://www.twitter.com/BeerStudy/status/721318132917411840
7.21E+17,4/16/2016,12:43,Teresa Becker,teresabay,"Owner of TKB Consulting. Orr Fellow Alum, Iowa native turned Hoosier, world traveler, adventure seeker & coffee fanatic. B2B SaaS is my thing.",Perfect morning for an 8k! #TMinus3Weeks #TeamDubs #mandtforever @… https://t.co/VugX3HMDfJ,,,39.97000046,-86.13074147,US,"Carmel, IN",http://pbs.twimg.com/profile_images/602183489258127360/_dKYfaqb_normal.jpg,2670,2145,176,en,http://www.twitter.com/teresabay/status/721318131965300736
7.21E+17,4/16/2016,12:43,Lindsey Rust,lindshambiscuit,Pepperdine '20,"Waking up early on Saturday mornings actually isn't so bad.  ?? @ Alexandria, Virginia https://t.co/mNsZeXIG2n",,,38.80472222,-77.04722222,US,"Alexandria, VA",http://pbs.twimg.com/profile_images/717516591253073920/Pyybc4Cg_normal.jpg,360,284,1,en,http://www.twitter.com/lindshambiscuit/status/721318131130437633
7.21E+17,4/16/2016,12:43,Jamie Ferrarin,jaxjay9,"Photographer, #Runner, Lover and #NHL season ticket holder. Lifelong #MLB fan. Let's Do this! https://t.co/UGZSLUQ18u","#Coffee time (@ Konditori in Brooklyn, NY) https://t.co/jX990c9Kdj https://t.co/Bl4elj2klV",,,40.677268,-73.963672,US,"Brooklyn, NY",http://pbs.twimg.com/profile_images/713534252944637953/EeFzypZm_normal.jpg,941,831,115,es,http://www.twitter.com/jaxjay9/status/721318128777617408
7.21E+17,4/16/2016,12:43,ACOSTA,chino91637405,me gusta ser libre y expresar lo que siento,?????? https://t.co/Pwil7ExQpk,,,19.4303593,-99.1404852,MX,"Cuauhtémoc, Distrito Federal",http://pbs.twimg.com/profile_images/712473226937376770/bB5rHen0_normal.jpg,245,857,,es,http://www.twitter.com/chino91637405/status/721318127552737281
7.21E+17,4/16/2016,12:43,CHINA,sofiaberen,"I got so much shit to say. | Si te gustaría leer mi mente, leé mis tweets.",See ya. ???? #hollywoodstudios #herewego @ Orlando Fl - Walt Disney World https://t.co/MTaACxQSjU,,,28.3339936,-81.5920011,US,"Florida, USA",http://pbs.twimg.com/profile_images/709342095094521856/dTomGNoI_normal.jpg,336,286,12,en,http://www.twitter.com/sofiaberen/status/721318125325541376
7.21E+17,4/16/2016,12:43,Plez,plezWorld,husband-father-son-brother-mentor-Nupe-exec-consultant-geek-activist-wonk-blogger-friend-and a helluva engineer (GT alum) twittering away in plezWorld!,"I'm at @Publix in Lithonia, GA https://t.co/Kck1Uzkuvl",,,33.69777,-84.17312,US,"Georgia, USA",http://pbs.twimg.com/profile_images/1765814630/PAJ-2011Tux_normal.jpg,1927,1991,53,en,http://www.twitter.com/plezWorld/status/721318122939117568
7.21E+17,4/16/2016,12:43,'Sunkanmi,7unky,Loyalty is Everything,"Lol. Me and you no be same. Life of deceit lo'n live. ""@vanboyosky: That's it. We are not Sorry. https://t.co/tZZ6Gv3hEJ""",,,41.9908854,-87.6566102,US,"Chicago, IL",http://pbs.twimg.com/profile_images/719920334447755264/eqPLtXn8_normal.jpg,1754,370,16,en,http://www.twitter.com/7unky/status/721318122775560192
7.21E+17,4/16/2016,12:43,Ziad Bader,ziad_bader,,"I'm at Sky House - Dallas in Dallas, TX https://t.co/jbRJenJacC",,,32.78570399,-96.80844496,US,"Dallas, TX",http://pbs.twimg.com/profile_images/474675028781326336/lQYjMqMT_normal.jpeg,110,294,5,en,http://www.twitter.com/ziad_bader/status/721318121651499009
7.21E+17,4/16/2016,12:43,TMJ-NYA Retail Jobs,tmj_nya_retail,"Follow this account for geo-targeted Retail job tweets in Albany, NY. Need help? Tweet us at @CareerArc!","Tractor Supply Company #Retail #Job: Store Team Member (#Greenwich, NY) https://t.co/HqOKVcNQq8 #Jobs #Hiring #CareerArc",,,43.102012,-73.5129492,US,"Greenwich, NY",http://pbs.twimg.com/profile_images/669935589102260224/1r-RiVKO_normal.jpg,369,310,37,en,http://www.twitter.com/tmj_nya_retail/status/721318117452873728
7.21E+17,4/16/2016,12:43,TMJ-GA Retail Jobs,tmj_ga_retail,Follow this account for geo-targeted Retail job tweets in Georgia Non-Metro. Need help? Tweet us at @CareerArc!,"Retail Store Positions - CVS Health: (#Athens, GA) https://t.co/8LYVPDm8Bx #Retail #Job #Jobs #Hiring #CareerArc",,,33.961489,-83.41406,US,"Athens, GA",http://pbs.twimg.com/profile_images/666859166783266816/rn0bc-i__normal.jpg,475,307,123,en,http://www.twitter.com/tmj_ga_retail/status/721318117012426753
7.21E+17,4/16/2016,12:43,Join BAYADA,JoinBAYADA,"BAYADA employs more than 18,000 nurses, home health aides, therapists, medical social workers, managers, and other health care professionals across the country.","See our latest #Dover, PA #job and click to apply: HHA / CNA - Dover, PA - https://t.co/QovqYkk43b #Hiring",,,40.0017634,-76.8502488,US,"Dover, PA",http://pbs.twimg.com/profile_images/521653094073896960/S288SKQw_normal.jpeg,312,29,315,en,http://www.twitter.com/JoinBAYADA/status/721318116827893760
7.21E+17,4/16/2016,12:43,MRSOWENS,Babygurl972001,Living life and loving ever minute of it!,"???????? @ Rockville, Maryland https://t.co/Fzsh0UsV2l",,,39.08361111,-77.14833333,US,"Rockville, MD",http://pbs.twimg.com/profile_images/720818417117188096/8JZPpzYk_normal.jpg,174,860,11,en,http://www.twitter.com/Babygurl972001/status/721318116144373760
7.21E+17,4/16/2016,12:43,LexisNexis Risk,LNRisk_Jobs,"LexisNexis is a leader in providing essential information to help customers across industry and government assess, predict and manage risk. Join our team today!","Account Support Analyst - Fulfillment - LexisNexis Risk: (#Alpharetta, GA) https://t.co/C22JUaZ7IT #CustomerService #Job #Jobs #Hiring",,,34.0753762,-84.2940899,US,"Alpharetta, GA",http://pbs.twimg.com/profile_images/492286624017817602/w8uc9FwJ_normal.jpeg,196,30,304,en,http://www.twitter.com/LNRisk_Jobs/status/721318115917701120
7.21E+17,4/16/2016,12:43,"Atlanta, GA Jobs",tmj_atl_jobs,"Follow this account for geo-targeted Other job tweets in Atlanta, GA. Need help? Tweet us at @CareerArc!","We're #hiring! Click to apply: Turkish Interpreters - https://t.co/i9FE7vhX7F #Job #interpreter #bilingual #Atlanta, GA #Jobs",,,33.7489954,-84.3879824,US,"Atlanta, GA",http://pbs.twimg.com/profile_images/668746433999187968/4WY4ZsvN_normal.jpg,1159,567,75,en,http://www.twitter.com/tmj_atl_jobs/status/721318113598263296
7.21E+17,4/16/2016,12:43,Abraham G. Salinas,agsalinas,"Professional IT Manager, Existencialist Philosopher, Socializing Geek, Music Junkie, Amateur Mountaineer, Intended Badass Motherfucker in a Scared Puppy Suit","I'm at Bosque de Tlalpan in Tlalpan, Distrito Federal https://t.co/3bGy6iwkJd",,,19.29492199,-99.19379711,MX,"Tlalpan, Distrito Federal",http://pbs.twimg.com/profile_images/623687364532023297/jOXt63QZ_normal.jpg,3112,2406,56,es,http://www.twitter.com/agsalinas/status/721318113476812801
7.21E+17,4/16/2016,12:43,Tammy Kelly,seacrzy,"Loving life, loving music and loving capturing the moment. If you meet me, I'll probably take your picture. I follow back",Not a bad price for a NYC breakfast #bargin #nyc #coffeislife @ 34th Street – Herald Square https://t.co/N01YPwEvk3,,,40.749338,-73.987985,US,"Manhattan, NY",http://pbs.twimg.com/profile_images/320494530/TammyTwithalved_normal.jpg,663,516,2,en,http://www.twitter.com/seacrzy/status/721318107864694785
7.21E+17,4/16/2016,12:43,511 New York,511NY,Traffic & transit updates for all of New York State provided by New York State 511. Visit the website for more feeds.,Incident on #I87NYSThruway NB at 0.33 after Tappan Zee Bridge Toll Barrier https://t.co/sXWa3bWLKe,,,41.068858,-73.869077,US,"Tarrytown, NY",http://pbs.twimg.com/profile_images/307131779/511twitlogo_normal.png,1285,206,192,en,http://www.twitter.com/511NY/status/721318106275192832
7.21E+17,4/16/2016,12:43,Juicy Jade,jacquijade,my life is just a series of snapchats and selfies.,i have tonsillitis but at least i'm covered in cute kittens. @ The Little Clinic https://t.co/vGv8tyrrmo,,,40.611839,-105.073571,US,"Fort Collins, CO",http://pbs.twimg.com/profile_images/629729970559053824/o2MYtJsi_normal.jpg,413,500,23,en,http://www.twitter.com/jacquijade/status/721318105612423168
7.21E+17,4/16/2016,12:43,Jason Covert,jhcovert,"Brooklyn based artist, bider of time, consumer of swine, binder with twine, and maker of bathtub wine while believing, truly, that all will be fine",Spring has truly sprung @bklynbotanic. The tulips are coming on strong and the place smells… https://t.co/kyaq4Spvf2,,,40.6687389,-73.96304505,US,"Brooklyn, NY",http://pbs.twimg.com/profile_images/469807281862094850/hIPQt46J_normal.jpeg,36,62,1,en,http://www.twitter.com/jhcovert/status/721318103368536064
7.21E+17,4/16/2016,12:43,DineHere.us,dine_here,The simple dining guide,"Try https://t.co/owPNK24lqa Caesar Salad, Grilled Chicken or Grillled Shrimp #Grilled #menu",,,33.84211411,-84.37108397,US,"Atlanta, GA",http://pbs.twimg.com/profile_images/1657084315/simps_normal.jpg,4387,876,708,en,http://www.twitter.com/dine_here/status/721318094728105984
7.21E+17,4/16/2016,12:43,Love's Jobs,LovesJobs,"Retail, food service, tire shop, trucking, hotel & corporate #jobs. Follow @LovesCareers to learn about culture, career development and community involvement.",We're #hiring! Read about our latest #job opening here: Maintenance Technician - Tire... - https://t.co/lBJXYIhShX https://t.co/lYMCbD57D8,,,30.0566085,-95.9268986,US,"Texas, USA",http://pbs.twimg.com/profile_images/495228413771128832/nsO4ZlRp_normal.png,68,7,69,en,http://www.twitter.com/LovesJobs/status/721318091355922432
7.21E+17,4/16/2016,12:43,Sean Vincent,SeanVincent2000,"My hobbies are pretty simple; train at a local wrestling gym, study pro wrestling, and finishing up college.",Myself with the hardcore wrestling legend Terry Funk. @ East… https://t.co/7vSaWKyval,,,38.54041805,-90.23205128,US,"Illinois, USA",http://pbs.twimg.com/profile_images/1273924132/SV_Edit3_normal.jpg,85,105,1,en,http://www.twitter.com/SeanVincent2000/status/721318089103687681
7.21E+17,4/16/2016,12:43,Stephen P. Santilli,SPSantilli,"Lead Learner @WilliamDaviesMS (2015 NJ & National Green Ribbon School), member of NASSP, AMLE, ASCD, NJPSA & CAPSA.  2014 Bammy Award Recipient for MS Principal",@drspikecook introducing @ideaguy42 to keynote #baconbytes @ RM… https://t.co/L935s8etMi,,,39.3865,-75.03099,US,"Millville, NJ",http://pbs.twimg.com/profile_images/460044000242581504/dl3DOHji_normal.jpeg,1814,1684,153,en,http://www.twitter.com/SPSantilli/status/721318088164007937
7.21E+17,4/16/2016,12:43,Todd-Michael Hayes,tmhayes77,"flight attendant, singer, hair-chameleon","Happy 50th Anniversary, Mom &amp; Dad!!! @ Vernon, Connecticut https://t.co/veYZJn381K",,,41.8186,-72.48,US,"Vernon, CT",http://pbs.twimg.com/profile_images/1332430659/TM_Feb_2011_normal.jpg,497,1087,7,en,http://www.twitter.com/tmhayes77/status/721318087534858240
7.21E+17,4/16/2016,12:43,Nathan Morett,NDMorett,"Father to 2 awesome boys & 2 Rescue Dogs, lover of food, drink and TamTam, Sales and Distribution Manager at RESQWATER, tweets are my own.  @resqwater_MN",We're coming for you #DuluthMN and #SuperiorWI. See you today at the #GitchiGumiBrewFest stop by… https://t.co/E5CzdHdF0e,,,46.707235,-92.087766,US,"Superior, WI",http://pbs.twimg.com/profile_images/716356313559801856/lXBMfWTT_normal.jpg,370,688,11,en,http://www.twitter.com/NDMorett/status/721318085882462208
7.21E+17,4/16/2016,12:43,Le Garçon  ??oir,JesseAnubiz,"Stunt Performer / Actor / Photographer 
Website: http://t.co/B0wWWfhtdR",I might not make it... @ Orangeville Fairgrounds https://t.co/2qj9JEHiuF,,,43.94964642,-80.07689223,CA,"Mono, Ontario",http://pbs.twimg.com/profile_images/634963518886969344/n6-s-PtT_normal.jpg,1118,727,9,en,http://www.twitter.com/JesseAnubiz/status/721318085278437376
7.21E+17,4/16/2016,12:43,TMJ-BAL Cleric. Jobs,tmj_bal_cler,"Follow this account for geo-targeted Office/Clerical job tweets in Baltimore, MD. Need help? Tweet us at @CareerArc!","#Clerical #Job alert: VOLUNTARY SERVICE SPECIALIST | Department of Veterans Affairs | #Baltimore, MD https://t.co/6ihrD8CxsL #Veterans",,,39.2903848,-76.6121893,US,"Baltimore, MD",http://pbs.twimg.com/profile_images/671208618197278720/dlpBaj0u_normal.jpg,267,202,26,en,http://www.twitter.com/tmj_bal_cler/status/721318081683804160
7.21E+17,4/16/2016,12:43,Mathewsz Costanza,mvyana_,I don't believe in everything I see,"Out of the water.

#achadosdasemana #old #desafioprimeira #fotografeumaideia #vsco #vscocam… https://t.co/BsGnbykzb1",,,28.331,-80.613,US,"Cocoa Beach, FL",http://pbs.twimg.com/profile_images/692373492231180288/rm2AZEYm_normal.jpg,113,156,5,en,http://www.twitter.com/mvyana_/status/721318080215785472
7.21E+17,4/16/2016,12:43,TMJ-RDU HRTA Jobs,tmj_rdu_hrta,"Follow this account for geo-targeted Hospitality/Restaurant/Tourism job tweets in Raleigh/Durham, NC. Need help? Tweet us at @CareerArc!","Want to work in #Raleigh, NC? View our latest opening: https://t.co/47Moy3XIOq #Hospitality #parttime #Veterans #Job #Jobs #Hiring",,,35.8981072,-78.6501448,US,"Raleigh, NC",http://pbs.twimg.com/profile_images/667946008911867904/Zes0iUxg_normal.jpg,422,292,45,en,http://www.twitter.com/tmj_rdu_hrta/status/721318079708270592
7.21E+17,4/16/2016,12:43,ATL Hospitality Jobs,tmj_atl_hrta,"Follow this account for geo-targeted Hospitality/Restaurant/Tourism job tweets in Atlanta, GA. Need help? Tweet us at @CareerArc!","Can you recommend anyone for this #Hospitality #job? https://t.co/BfxQqibVEY #Atlanta, GA #Veterans #Hiring #CareerArc",,,33.9199633,-84.3522488,US,"Sandy Springs, GA",http://pbs.twimg.com/profile_images/667573662057271297/4t1oRNfh_normal.jpg,568,351,70,en,http://www.twitter.com/tmj_atl_hrta/status/721318079548891136
7.21E+17,4/16/2016,12:43,TMJ-IN Sales Jobs,tmj_IN_sales,Follow this account for geo-targeted Sales job tweets in Indiana Non-Metro. Need help? Tweet us at @CareerArc!,This #Sales #job might be a great fit for you: Assistant Route Service Sales Representative - Uniform - CMV - https://t.co/P2dq0mPtwc,,,39.4667034,-87.4139092,US,"Terre Haute, IN",http://pbs.twimg.com/profile_images/669360408445083648/AW5eZxME_normal.jpg,377,298,63,en,http://www.twitter.com/tmj_IN_sales/status/721318079393759232
7.21E+17,4/16/2016,12:43,Tyler  Hamments,MadeInCanada_13,"Machinist by trade UFC,MMA,WMMA FAN Trying to do what i can while im here. Love getting ink #TattooTherapy #HumanCanvas #TattooCollector","#WhirlPool #Niagara #Fishing #UglyStick #FishWhistle @ Whirlpool Rapids, Niagara Gorge, ON, Canada https://t.co/tiZUpJWolT",,,43.12122844,-79.07347122,CA,"Niagara Falls, Ontario",http://pbs.twimg.com/profile_images/707768653949882368/-FxZHbg9_normal.jpg,550,823,73,en,http://www.twitter.com/MadeInCanada_13/status/721318079242846208
7.21E+17,4/16/2016,12:43,TMJ-PA Health Jobs,tmj_pa_health,Follow this account for geo-targeted Healthcare job tweets in Pennsylvania Non-Metro. Need help? Tweet us at @CareerArc!,"Can you recommend anyone for this #job? Certified Nursing Assistant CNA Home Health Aide HHA - https://t.co/3LLubrc9zf #Allentown, PA",,,40.6084305,-75.4901833,US,"Allentown, PA",http://pbs.twimg.com/profile_images/667014865551147009/gNxGokiA_normal.jpg,543,305,140,en,http://www.twitter.com/tmj_pa_health/status/721318079217537024
7.21E+17,4/16/2016,12:43,Moe The Man,themanmoe,"How do you know where youre going, if you dont know where you came from?  #neverforget",".
???? @ Miami Beach, Florida https://t.co/BOl47xZqRX",,,25.813,-80.1341,US,"Miami Beach, FL",http://pbs.twimg.com/profile_images/488979085860012033/jm8MwCKf_normal.jpeg,394,731,7,es,http://www.twitter.com/themanmoe/status/721318078575984644
